Airport Name,Location,Country,Latitude,Longitude
Barter Island LRRS Airport,Barter Island,United States,70.1340026855,-143.582000732
Wainwright Air Station,Fort Wainwright,United States,70.61340332,-159.8600006
Cape Lisburne LRRS Airport,Cape Lisburne,United States,68.87509918,-166.1100006
Point Lay LRRS Airport,Point Lay,United States,69.73290253,-163.0050049
Hilo International Airport,Hilo,United States,19.721399307251,-155.048004150391
Orlando Executive Airport,Orlando,United States,28.5455,-81.332901
Bettles Airport,Bettles,United States,66.91390228,-151.529007
Clear Airport,Clear Mews,United States,64.301201,-149.119995
Indian Mountain LRRS Airport,Indian Mountains,United States,65.99279785,-153.7039948
Fort Yukon Airport,Fort Yukon,United States,66.5715026855469,-145.25
Sparrevohn LRRS Airport,Sparrevohn,United States,61.09740067,-155.5740051
Bryant Army Heliport,Fort Richardson,United States,61.26639938,-149.6529999
Tatalina LRRS Airport,Tatalina,United States,62.8944015503,-155.977005005
Cape Romanzof LRRS Airport,Cape Romanzof,United States,61.78030014,-166.0390015
Laurence G Hanscom Field,Bedford,United States,42.47000122,-71.28900146
St Paul Island Airport,St. Paul Island,United States,57.1673011779785,-170.220001220703
Cape Newenham LRRS Airport,Cape Newenham,United States,58.6464004517,-162.06300354
St George Airport,Point Barrow,United States,56.5783004761,-169.662002563
Iliamna Airport,Iliamna,United States,59.75439835,-154.9109955
Platinum Airport,Port Moller,United States,59.0113983154297,-161.820007324219
Big Mountain Airport,Big Mountain,United States,59.3611984253,-155.259002686
Oscoda Wurtsmith Airport,Oscoda,United States,44.451599,-83.394096
Marina Municipal Airport,Fort Ord,United States,36.68190002,-121.762001
Sacramento Mather Airport,Sacramento,United States,38.55390167,-121.2979965
Bicycle Lake Army Air Field,Fort Irwin,United States,35.2804985046,-116.629997253
Twentynine Palms (Self) Airport,Twenty Nine Palms,United States,34.2961998,-116.1620026
Fort Smith Regional Airport,Fort Smith,United States,35.3366012573242,-94.3674011230469
Merrill Field,Anchorage,United States,61.2135009765625,-149.843994140625
Grants-Milan Municipal Airport,Grants,United States,35.167301178,-107.902000427
Ponca City Regional Airport,Ponca City,United States,36.73199844,-97.09980011
Hunter Army Air Field,Hunter Aaf,United States,32.00999832,-81.14569855
Grand Forks International Airport,Grand Forks,United States,47.949299,-97.176102
Whiting Field Naval Air Station - North,Milton,United States,30.7241993,-87.02189636
Hana Airport,Hana,United States,20.7956008911133,-156.014007568359
Ernest A. Love Field,Prescott,United States,34.65449905,-112.4199982
Trenton Mercer Airport,Trenton,United States,40.2766990661621,-74.8134994506836
General Edward Lawrence Logan International Airport,Boston,United States,42.36429977,-71.00520325
Travis Air Force Base,Fairfield,United States,38.262699127197,-121.92700195312
Griffiss International Airport,Rome,United States,43.23379898,-75.40699768
Wendover Airport,Wendover,United States,40.7187004089,-114.03099823
Mobile Downtown Airport,Mobile,United States,30.6268005371,-88.0680999756
Metropolitan Oakland International Airport,Oakland,United States,37.721298,-122.221001
Eppley Airfield,Omaha,United States,41.3032,-95.894096
Port Angeles Cgas Airport,Port Angeles,United States,48.1414985656738,-123.414001464844
Kahului Airport,Kahului,United States,20.8986,-156.429993
Wichita Eisenhower National Airport,Wichita,United States,37.649899,-97.433098
Kansas City International Airport,Kansas City,United States,39.2976,-94.713898
Dane County Regional Truax Field,Madison,United States,43.1399002075195,-89.3375015258789
Dillingham Airport,Dillingham,United States,59.04470062,-158.5050049
Boone County Airport,Harrison,United States,36.2615013122559,-93.1547012329102
Phoenix Sky Harbor International Airport,Phoenix,United States,33.4342994689941,-112.012001037598
Bangor International Airport,Bangor,United States,44.8073997497559,-68.8281021118164
Fort Lauderdale Executive Airport,Fort Lauderdale,United States,26.1972999573,-80.1707000732
East Texas Regional Airport,Longview,United States,32.3839988708496,-94.7115020751953
Anderson Regional Airport,Andersen,United States,34.4945983887,-82.7093963623
Spokane International Airport,Spokane,United States,47.6198997497559,-117.533996582031
North Perry Airport,Hollywood,United States,26.0012,-80.2407
San Francisco International Airport,San Francisco,United States,37.6189994812012,-122.375
Cut Bank International Airport,Cutbank,United States,48.6083984375,-112.375999451
Acadiana Regional Airport,Louisiana,United States,30.0378,-91.883904
Gainesville Regional Airport,Gainesville,United States,29.6900997162,-82.2717971802
Memphis International Airport,Memphis,United States,35.0424003601074,-89.9766998291016
Bisbee Douglas International Airport,Douglas,United States,31.4689998627,-109.603996277
Allen Army Airfield,Delta Junction,United States,63.9944992065,-145.722000122
TSTC Waco Airport,Waco,United States,31.6378002167,-97.0740966797
Annette Island Airport,Annette Island,United States,55.0424003601074,-131.572006225586
Caribou Municipal Airport,Caribou,United States,46.8714981079,-68.0178985596
Little Rock Air Force Base,Jacksonville,United States,34.9169006348,-92.1496963501
Redstone Army Air Field,Redstone,United States,34.67869949,-86.68479919
Pope Field,Fort Bragg,United States,35.1708984375,-79.014503479004
Dalhart Municipal Airport,Dalhart,United States,36.0225982666,-102.54699707
DLF Airport,Del Rio,United States,29.359501,-100.778002
Los Angeles International Airport,Los Angeles,United States,33.94250107,-118.4079971
Anniston Regional Airport,Anniston,United States,33.5882,-85.8581
Cleveland Hopkins International Airport,Cleveland,United States,41.4117012024,-81.8498001099
Dover Air Force Base,Dover,United States,39.12950134,-75.46600342
Cincinnati Northern Kentucky International Airport,Cincinnati,United States,39.0488014221,-84.6678009033
Tipton Airport,Fort Meade,United States,39.0853996277,-76.7593994141
China Lake Naws (Armitage Field) Airport,China Lake,United States,35.6853981,-117.6920013
Huron Regional Airport,Huron,United States,44.3852005004883,-98.2285003662109
Juneau International Airport,Juneau,United States,58.3549995422363,-134.57600402832
Lafayette Regional Airport,Lafayette,United States,30.20529938,-91.98760223
Newark Liberty International Airport,Newark,United States,40.6925010681152,-74.168701171875
Boise Air Terminal/Gowen Field,Boise,United States,43.5644,-116.223
Creech Air Force Base,Indian Springs,United States,36.5872001648,-115.672996521
Garden City Regional Airport,Garden City,United States,37.9275016785,-100.723999023
Minot International Airport,Minot,United States,48.2593994140625,-101.279998779297
Wheeler Army Airfield,Wahiawa,United States,21.48349953,-158.0399933
Maxwell Air Force Base,Montgomery,United States,32.3829,-86.365799
Robinson Army Air Field,Robinson,United States,34.85010147,-92.30020142
Dallas Love Field,Dallas,United States,32.847099,-96.851799
Butts AAF (Fort Carson) Air Field,Fort Carson,United States,38.67839813,-104.7570038
Helena Regional Airport,Helena,United States,46.6068000793457,-111.983001708984
Miramar Marine Corps Air Station - Mitscher Field,Miramar,United States,32.86840057,-117.1429977
Luke Air Force Base,Phoenix,United States,33.5349998474,-112.383003235
Hurlburt Field,Mary Esther,United States,30.4277992248535,-86.6893005371094
Jack Northrop Field Hawthorne Municipal Airport,Hawthorne,United States,33.922798,-118.334999
Houlton International Airport,Houlton,United States,46.1231002808,-67.792098999
Vance Air Force Base,Enid,United States,36.3391990662,-97.9164962769
Point Mugu Naval Air Station (Naval Base Ventura Co),Point Mugu,United States,34.120300293,-119.121002197
Edwards Air Force Base,Edwards Afb,United States,34.905399,-117.884003
Lake Charles Regional Airport,Lake Charles,United States,30.1261005401611,-93.2232971191406
Ellison Onizuka Kona International At Keahole Airport,Kona,United States,19.738783,-156.045603
Myrtle Beach International Airport,Myrtle Beach,United States,33.6796989441,-78.9282989502
Lemoore Naval Air Station (Reeves Field) Airport,Lemoore,United States,36.33300018,-119.9520035
Nantucket Memorial Airport,Nantucket,United States,41.25310135,-70.06020355
Felker Army Air Field,Fort Eustis,United States,37.1324996948,-76.6088027954
Campbell AAF (Fort Campbell) Air Field,Hopkinsville,United States,36.668598175,-87.4962005615
Ronald Reagan Washington National Airport,Washington,United States,38.8521,-77.037697
Patuxent River Naval Air Station (Trapnell Field),Patuxent River,United States,38.285999,-76.411797
Palacios Municipal Airport,Palacios,United States,28.727500915527,-96.250999450684
Arkansas International Airport,Blytheville,United States,35.9642982483,-89.9440002441
Atlantic City International Airport,Atlantic City,United States,39.4575996398926,-74.5772018432617
Tinker Air Force Base,Oklahoma City,United States,35.414699554443,-97.386596679688
Elizabeth City Regional Airport & Coast Guard Air Station,Elizabeth City,United States,36.26060104,-76.17459869
Pueblo Memorial Airport,Pueblo,United States,38.2891006469727,-104.497001647949
Northern Maine Regional Airport at Presque Isle,Presque Isle,United States,46.68899918,-68.0447998
Kirtland Air Force Base,Kirtland A.f.b.,United States,35.040222,-106.609194
Gray Army Air Field,Fort Lewis,United States,47.07920074,-122.5810013
Kodiak Airport,Kodiak,United States,57.75,-152.4940033
Upolu Airport,Opolu,United States,20.2653007507324,-155.860000610352
Fort Lauderdale Hollywood International Airport,Fort Lauderdale,United States,26.072599,-80.152702
Muskogee-Davis Regional Airport,Muskogee,United States,35.656502,-95.366699
Falls International Airport,International Falls,United States,48.5662002563477,-93.4030990600586
Salt Lake City International Airport,Salt Lake City,United States,40.7883987426758,-111.977996826172
Childress Municipal Airport,Childress,United States,34.4337997437,-100.288002014
Keesler Air Force Base,Biloxi,United States,30.4104003906,-88.9244003296
Lawson Army Air Field (Fort Benning),Fort Benning,United States,32.3372993469,-84.9913024902
Kingsville Naval Air Station,Kingsville,United States,27.5072002411,-97.8097000122
Marshall Army Air Field,Fort Riley,United States,39.05530167,-96.76450348
Harrisburg International Airport,Harrisburg,United States,40.1935005188,-76.7633972168
Lincoln Airport,Lincoln,United States,40.851001739502,-96.7592010498047
Capital City Airport,Lansing,United States,42.7787017822266,-84.58740234375
Waimea Kohala Airport,Kamuela,United States,20.0013008117676,-155.667999267578
Massena International Richards Field,Massena,United States,44.9357986450195,-74.8455963134766
Hickory Regional Airport,Hickory,United States,35.74110031,-81.38950348
Albert Whitted Airport,St. Petersburg,United States,27.7651,-82.626999
Page Field,Fort Myers,United States,26.58659935,-81.8632965088
George Bush Intercontinental Houston Airport,Houston,United States,29.9843997955322,-95.3414001464844
Millinocket Municipal Airport,Millinocket,United States,45.6478004455566,-68.6856002807617
Joint Base Andrews,Camp Springs,United States,38.810799,-76.866997
Smith Reynolds Airport,Winston-salem,United States,36.1337013244629,-80.2220001220703
Southern California Logistics Airport,Victorville,United States,34.5974998474,-117.383003235
Bob Sikes Airport,Crestview,United States,30.778799057,-86.522102356
Wheeler Sack Army Air Field,Fort Drum,United States,44.05559921,-75.71949768
St Clair County International Airport,Port Huron,United States,42.9109993,-82.52890015
Meadows Field,Bakersfield,United States,35.43360138,-119.0569992
El Paso International Airport,El Paso,United States,31.80719948,-106.3779984
Valley International Airport,Harlingen,United States,26.2285003662109,-97.6544036865234
Columbia Metropolitan Airport,Columbia,United States,33.9388008117676,-81.119499206543
Davis Monthan Air Force Base,Tucson,United States,32.1665000916,-110.883003235
Pensacola Naval Air Station/Forrest Sherman Field,Pensacola,United States,30.35269928,-87.31860352
Pensacola Regional Airport,Pensacola,United States,30.473400115967,-87.186599731445
Grand Forks Air Force Base,Red River,United States,47.961101532,-97.4011993408
William P Hobby Airport,Houston,United States,29.64539909,-95.27890015
Buckley Air Force Base,Buckley,United States,39.7016983032,-104.751998901
Northway Airport,Northway,United States,62.9612999,-141.9290009
Pittsburgh International Airport,Pittsburgh,United States,40.49150085,-80.23290253
Wiley Post Will Rogers Memorial Airport,Barrow,United States,71.285402,-156.766008
Ellington Airport,Houston,United States,29.6072998047,-95.1587982178
Whidbey Island Naval Air Station (Ault Field),Whidbey Island,United States,48.351799,-122.655998
Alice International Airport,Alice,United States,27.7409000397,-98.0269012451
Moody Air Force Base,Valdosta,United States,30.9678001404,-83.1930007935
Miami International Airport,Miami,United States,25.7931995391846,-80.2906036376953
Seattle Tacoma International Airport,Seattle,United States,47.449001,-122.308998
Lovell Field,Chattanooga,United States,35.0353012084961,-85.2037963867188
Igor I Sikorsky Memorial Airport,Stratford,United States,41.163501739502,-73.1261978149414
Jackson-Medgar Wiley Evers International Airport,Jackson,United States,32.3111991882,-90.0758972168
Scholes International At Galveston Airport,Galveston,United States,29.2653007507324,-94.8603973388672
Long Beach /Daugherty Field/ Airport,Long Beach,United States,33.81769943,-118.1520004
Dillingham Airfield,Dillingham,United States,21.5795001984,-158.197006226
Williamsport Regional Airport,Williamsport,United States,41.2417984008789,-76.9210968017578
Indianapolis International Airport,Indianapolis,United States,39.7173,-86.294403
Whiteman Air Force Base,Knobnoster,United States,38.73030090332,-93.547897338867
Akron Fulton International Airport,Akron,United States,41.0374984741,-81.4669036865
Greenwood–Leflore Airport,Greenwood,United States,33.4943008423,-90.0847015381
Westchester County Airport,White Plains,United States,41.0670013427734,-73.7076034545898
Francis S Gabreski Airport,West Hampton Beach,United States,40.8437004089,-72.6317977905
Jonesboro Municipal Airport,Jonesboro,United States,35.8316993713379,-90.6464004516602
Tonopah Test Range Airport,Tonopah,United States,37.7988014221,-116.78099823
Palm Beach County Park Airport,West Palm Beach,United States,26.59300041,-80.08509827
North Island Naval Air Station-Halsey Field,San Diego,United States,32.69919968,-117.2149963
Biggs Army Air Field (Fort Bliss),El Paso,United States,31.84950066,-106.3799973
Yuma MCAS/Yuma International Airport,Yuma,United States,32.65660095,-114.6060028
Cavern City Air Terminal,Carlsbad,United States,32.3375015258789,-104.263000488281
Duluth International Airport,Duluth,United States,46.8420982361,-92.1936035156
Bethel Airport,Bethel,United States,60.77980042,-161.8379974
Bowman Field,Louisville,United States,38.2280006409,-85.6636962891
Sierra Vista Municipal Libby Army Air Field,Fort Huachuca,United States,31.5884990692139,-110.34400177002
Lihue Airport,Lihue,United States,21.9759998321533,-159.339004516602
Havre City County Airport,Havre,United States,48.54299927,-109.762001
Grant County International Airport,Grant County Airport,United States,47.20769882,-119.3199997
Edward F Knapp State Airport,Montpelier,United States,44.20349884,-72.56230164
San Nicolas Island Nolf Airport,San Nicolas Island,United States,33.2397994995117,-119.458000183105
Richmond International Airport,Richmond,United States,37.505199432373,-77.3197021484375
Shreveport Regional Airport,Shreveport,United States,32.446602,-93.8256
Merle K (Mudhole) Smith Airport,Cordova,United States,60.4917984,-145.4779968
Norfolk International Airport,Norfolk,United States,36.8945999145508,-76.2012023925781
Southeast Texas Regional Airport,Beaumont,United States,29.9507999420166,-94.0206985473633
Savannah Hilton Head International Airport,Savannah,United States,32.12760162,-81.20210266
Hill Air Force Base,Ogden,United States,41.12403,-111.973086
Nome Airport,Nome,United States,64.5121994018555,-165.445007324219
Scappoose Industrial Airpark,San Luis,United States,45.7709999084473,-122.861999511719
St Petersburg Clearwater International Airport,St. Petersburg,United States,27.91020012,-82.68740082
Menominee Regional Airport,Macon,United States,45.126701,-87.638397
Conroe-North Houston Regional Airport,Conroe,United States,30.351801,-95.414497
Deadhorse Airport,Deadhorse,United States,70.19470215,-148.4649963
San Antonio International Airport,San Antonio,United States,29.5337009429932,-98.4698028564453
Greater Rochester International Airport,Rochester,United States,43.1189002990723,-77.6724014282227
Patrick Air Force Base,Coco Beach,United States,28.2348995209,-80.6100997925
Teterboro Airport,Teterboro,United States,40.8501014709,-74.060798645
Ellsworth Air Force Base,Rapid City,United States,44.14500046,-103.1039963
Raleigh Durham International Airport,Raleigh-durham,United States,35.8776016235352,-78.7874984741211
James M Cox Dayton International Airport,Dayton,United States,39.902400970459,-84.2193984985352
Kenai Municipal Airport,Kenai,United States,60.5731010437012,-151.244995117188
Mc Alester Regional Airport,Mcalester,United States,34.882401,-95.783501
Niagara Falls International Airport,Niagara Falls,United States,43.1072998046875,-78.9461975097656
Coulter Field,Bryan,United States,30.7157001495,-96.3313980103
Wright AAF (Fort Stewart)/Midcoast Regional Airport,Wright,United States,31.889099,-81.562303
Newport News Williamsburg International Airport,Newport News,United States,37.13190079,-76.49299622
Esler Regional Airport,Alexandria,United States,31.3948993683,-92.2957992554
Altus Air Force Base,Altus,United States,34.667098999,-99.2667007446
Tucson International Airport,Tucson,United States,32.1161003112793,-110.94100189209
Minot Air Force Base,Minot,United States,48.4156,-101.358002
Beale Air Force Base,Marysville,United States,39.136100769,-121.43699646
Greater Kankakee Airport,Kankakee,United States,41.0713996887,-87.8462982178
Seymour Johnson Air Force Base,Goldsboro,United States,35.33940125,-77.96060181
Theodore Francis Green State Airport,Providence,United States,41.732601,-71.420403
Salisbury Ocean City Wicomico Regional Airport,Salisbury,United States,38.3404998779297,-75.5102996826172
Rancho Murieta Airport,Rancho Murieta,United States,38.4868011474609,-121.102996826172
Bob Hope Airport,Burbank,United States,34.2006988525391,-118.359001159668
Detroit Metropolitan Wayne County Airport,Detroit,United States,42.2123985290527,-83.353401184082
Tampa International Airport,Tampa,United States,27.9755001068115,-82.533203125
Pembina Municipal Airport,Pembina,United States,48.9425010681,-97.2407989502
Polk Army Air Field,Fort Polk,United States,31.0447998,-93.1917038
Eielson Air Force Base,Fairbanks,United States,64.66570282,-147.102005
Range Regional Airport,Hibbing,United States,47.38660049,-92.83899689
Angelina County Airport,Lufkin,United States,31.2339992523,-94.75
Midland International Airport,Midland,United States,31.9424991607666,-102.202003479004
Austin Straubel International Airport,Green Bay,United States,44.4850997924805,-88.1296005249023
Ardmore Municipal Airport,Ardmore,United States,34.30301,-97.0196342
Mc Guire Air Force Base,Wrightstown,United States,40.0155983,-74.59169769
Cherry Point MCAS /Cunningham Field/,Cherry Point,United States,34.90090179,-76.88069916
Emanuel County Airport,Santa Barbara,United States,32.6091003417969,-82.3699035644531
Augusta Regional At Bush Field,Bush Field,United States,33.3698997497559,-81.9645004272461
Sloulin Field International Airport,Williston,United States,48.177898407,-103.641998291
Bill & Hillary Clinton National Airport/Adams Field,Little Rock,United States,34.7294006348,-92.2242965698
Stewart International Airport,Newburgh,United States,41.5041007995605,-74.1047973632812
Baudette International Airport,Baudette,United States,48.7284011841,-94.612197876
Sacramento Executive Airport,Sacramento,United States,38.5125007629,-121.492996216
Homer Airport,Homer,United States,59.6455993652344,-151.477005004883
Waynesville-St. Robert Regional Forney field,Fort Leonardwood,United States,37.74160004,-92.14070129
Dobbins Air Reserve Base,Marietta,United States,33.91540146,-84.51629639
Fairchild Air Force Base,Spokane,United States,47.6151008606,-117.65599823
Roscommon County - Blodgett Memorial Airport,Houghton Lake,United States,44.359798,-84.671095
Tyndall Air Force Base,Panama City,United States,30.0695991516,-85.5754013062
Dallas Fort Worth International Airport,Dallas-Fort Worth,United States,32.896801,-97.038002
Melbourne International Airport,Melbourne,United States,28.1028003692627,-80.6453018188477
McChord Air Force Base,Tacoma,United States,47.1376991272,-122.475997925
Austin Bergstrom International Airport,Austin,United States,30.1944999694824,-97.6698989868164
Rickenbacker International Airport,Columbus,United States,39.813801,-82.927803
Sawyer International Airport,Gwinn,United States,46.3535995483,-87.395401001
McGhee Tyson Airport,Knoxville,United States,35.81100082,-83.9940033
Hood Army Air Field,Fort Hood,United States,31.1387004852,-97.7145004272
St Louis Lambert International Airport,St. Louis,United States,38.748697,-90.370003
Millville Municipal Airport,Millville,United States,39.367802,-75.072197
Sheppard Air Force Base-Wichita Falls Municipal Airport,Wichita Falls,United States,33.9888,-98.491898
Cincinnati Municipal Airport Lunken Field,Cincinnati,United States,39.10329819,-84.41860199
Hartsfield Jackson Atlanta International Airport,Atlanta,United States,33.6367,-84.428101
Castle Airport,Merced,United States,37.38050079,-120.5680008
Mc Clellan Airfield,Sacramento,United States,38.66759872,-121.401001
Gerald R. Ford International Airport,Grand Rapids,United States,42.88079834,-85.52279663
Winkler County Airport,Wink,United States,31.7796001434,-103.200996399
Fresno Yosemite International Airport,Fresno,United States,36.7761993408203,-119.718002319336
Vero Beach Regional Airport,Vero Beach,United States,27.6556,-80.417901
Imperial County Airport,Imperial,United States,32.8342018127,-115.57900238
Nashville International Airport,Nashville,United States,36.1245002746582,-86.6781997680664
Laredo International Airport,Laredo,United States,27.5438003540039,-99.4616012573242
Elmendorf Air Force Base,Anchorage,United States,61.2509994506836,-149.807006835938
Ralph Wien Memorial Airport,Kotzebue,United States,66.88469696,-162.598999
Altoona Blair County Airport,Altoona,United States,40.29639816,-78.31999969
Dyess Air Force Base,Abilene,United States,32.4207992554,-99.854598999
South Arkansas Regional At Goodwin Field,El Dorado,United States,33.2210006713867,-92.8133010864258
La Guardia Airport,New York,United States,40.77719879,-73.87259674
Tallahassee Regional Airport,Tallahassee,United States,30.3964996337891,-84.3503036499023
Dupage Airport,West Chicago,United States,41.90779877,-88.24859619
Waco Regional Airport,Waco,United States,31.6112995147705,-97.2304992675781
Augusta State Airport,Augusta,United States,44.3205986023,-69.7973022461
Hillsboro Municipal Airport,Hillsboro,United States,32.08349991,-97.09719849
Jacksonville Naval Air Station (Towers Field),Jacksonville,United States,30.2358,-81.680603
McKellar-Sipes Regional Airport,Jackson,United States,35.599899,-88.915604
Molokai Airport,Molokai,United States,21.1529006958008,-157.095993041992
Godman Army Air Field,Fort Knox,United States,37.9071006775,-85.9720993042
New River MCAS /H/ /Mccutcheon Fld/ Airport,Jacksonville,United States,34.70840073,-77.43969727
San Angelo Regional Mathis Field,San Angelo,United States,31.3577003479004,-100.496002197266
Calexico International Airport,Calexico,United States,32.6694984436,-115.513000488
Chico Municipal Airport,Chico,United States,39.79539871,-121.8580017
Burlington International Airport,Burlington,United States,44.4719009399,-73.1532974243
Jacksonville International Airport,Jacksonville,United States,30.4941005706787,-81.6878967285156
Durango La Plata County Airport,Durango,United States,37.1515007019,-107.753997803
Washington Dulles International Airport,Washington,United States,38.94449997,-77.45580292
Easterwood Field,College Station,United States,30.58860016,-96.36380005
Felts Field,Spokane,United States,47.682800292969,-117.32299804688
General Mitchell International Airport,Milwaukee,United States,42.9472007751465,-87.896598815918
Abilene Regional Airport,Abilene,United States,32.4113006592,-99.6819000244
Columbia Regional Airport,Columbia,United States,38.8180999755859,-92.219596862793
Portland International Airport,Portland,United States,45.58869934,-122.5979996
Dade Collier Training and Transition Airport,Miami,United States,25.861799240112,-80.897003173828
Palm Beach International Airport,West Palm Beach,United States,26.6832008361816,-80.0955963134766
Fort Worth Meacham International Airport,Fort Worth,United States,32.819801,-97.362396
Ogdensburg International Airport,Ogdensburg,United States,44.6819000244,-75.4654998779
Cape Cod Coast Guard Air Station,Falmouth,United States,41.6584014893,-70.5214004517
Boeing Field King County International Airport,Seattle,United States,47.5299987792969,-122.302001953125
Lackland Air Force Base,San Antonio,United States,29.38419914,-98.58110046
Daniel K Inouye International Airport,Honolulu,United States,21.32062,-157.924228
Des Moines International Airport,Des Moines,United States,41.5340003967285,-93.6631011962891
Coastal Carolina Regional Airport,New Bern,United States,35.0730018616,-77.0429000854
San Diego International Airport,San Diego,United States,32.7336006165,-117.190002441
Monroe Regional Airport,Monroe,United States,32.5108985900879,-92.0376968383789
Shaw Air Force Base,Sumter,United States,33.97269821,-80.47059631
Ontario International Airport,Ontario,United States,34.0559997558594,-117.600997924805
Majors Airport,Greenvile,United States,33.0677986145,-96.0652999878
Roswell International Air Center Airport,Roswell,United States,33.3016014099121,-104.53099822998
Coleman A. Young Municipal Airport,Detroit,United States,42.40919876,-83.00990295
Brownsville South Padre Island International Airport,Brownsville,United States,25.9067993164062,-97.4259033203125
Dothan Regional Airport,Dothan,United States,31.3213005065918,-85.4496002197266
Cape May County Airport,Wildwood,United States,39.0084991455,-74.9083023071
Fallon Naval Air Station,Fallon,United States,39.41659927,-118.7009964
Selfridge Air National Guard Base Airport,Mount Clemens,United States,42.613463,-82.836919
Four Corners Regional Airport,Farmington,United States,36.7411994934,-108.230003357
Corpus Christi International Airport,Corpus Christi,United States,27.7703990936279,-97.5011978149414
Syracuse Hancock International Airport,Syracuse,United States,43.111198425293,-76.1063003540039
Naval Air Station Key West/Boca Chica Field,Key West,United States,24.57579994,-81.68890381
Chicago Midway International Airport,Chicago,United States,41.785999,-87.752403
Norman Y. Mineta San Jose International Airport,San Jose,United States,37.362598,-121.929001
Lea County Regional Airport,Hobbs,United States,32.6875,-103.2170029
Northeast Philadelphia Airport,Philadelphia,United States,40.081902,-75.010597
Denver International Airport,Denver,United States,39.861698150635,-104.672996521
Philadelphia International Airport,Philadelphia,United States,39.871898651123,-75.241096496582
Sioux Gateway Col. Bud Day Field,Sioux City,United States,42.40259933,-96.38439941
Middle Georgia Regional Airport,Macon,United States,32.692798614502,-83.6492004394531
Truth Or Consequences Municipal Airport,Truth Or Consequences,United States,33.2369003296,-107.272003174
Palmdale Regional/USAF Plant 42 Airport,Palmdale,United States,34.62939835,-118.0849991
Randolph Air Force Base,San Antonio,United States,29.52969933,-98.27890015
El Centro NAF Airport (Vraciu Field),El Centro,United States,32.829201,-115.671996
John Glenn Columbus International Airport,Columbus,United States,39.998001,-82.891899
Drake Field,Fayetteville,United States,36.0051002502441,-94.1700973510742
Henry Post Army Air Field (Fort Sill),Fort Sill,United States,34.64979935,-98.40219879
Princeton Municipal Airport,Princeton,United States,45.55989838,-93.60820007
Wright-Patterson Air Force Base,Dayton,United States,39.8260993958,-84.0483016968
Edward G. Pitka Sr Airport,Galena,United States,64.73619843,-156.9369965
Chandler Municipal Airport,Chandler,United States,33.2691,-111.810997
Mineral Wells Airport,Mineral Wells,United States,32.7816009521,-98.0602035522
Mc Connell Air Force Base,Wichita,United States,37.62189865,-97.26820374
New Orleans NAS JRB/Alvin Callender Field,New Orleans,United States,29.82530022,-90.03500366
Beaufort County Airport,Beaufort,United States,32.4122009277,-80.6343994141
Texarkana Regional Webb Field,Texarkana,United States,33.4537010192871,-93.9909973144531
Plattsburgh International Airport,Plattsburgh,United States,44.6509017944336,-73.4681015014648
Phillips Army Air Field,Aberdeen,United States,39.466202,-76.1688
Tucumcari Municipal Airport,Tucumcari,United States,35.182800293,-103.602996826
Ted Stevens Anchorage International Airport,Anchorage,United States,61.1744003295898,-149.996002197266
Robert Gray  Army Air Field Airport,Killeen,United States,31.067199707,-97.8289031982
Black Rock Airport,Zuni Pueblo,United States,35.0831985473633,-108.791999816895
Bellingham International Airport,Bellingham,United States,48.7928009033203,-122.53800201416
Millington-Memphis Airport,Millington,United States,35.356701,-89.8703
Elkins-Randolph Co-Jennings Randolph Field,Elkins,United States,38.88940048,-79.85710144
Hartford Brainard Airport,Hartford,United States,41.736698150635,-72.649398803711
North Central State Airport,Smithfield,United States,41.9207992554,-71.4914016724
Mobile Regional Airport,Mobile,United States,30.691200256348,-88.242797851562
Moffett Federal Airfield,Mountain View,United States,37.4161,-122.049004
Santa Fe Municipal Airport,Santa Fe,United States,35.617099762,-106.088996887
Barking Sands Airport,Barking Sands,United States,22.0228004456,-159.785003662
Beauregard Regional Airport,Deridder,United States,30.8316993713,-93.3398971558
Bradshaw Army Airfield,Bradshaw Field,United States,19.760099411,-155.554000854
Nogales International Airport,Nogales,United States,31.4177,-110.848
Mac Dill Air Force Base,Tampa,United States,27.84930038,-82.52120209
Scott AFB/Midamerica Airport,Belleville,United States,38.5452,-89.835197
Opa-locka Executive Airport,Miami,United States,25.907,-80.278397
Del Rio International Airport,Del Rio,United States,29.3742008209,-100.927001953
Southwest Florida International Airport,Fort Myers,United States,26.5361995697021,-81.7552032470703
King Salmon Airport,King Salmon,United States,58.67679977,-156.6490021
Muir Army Air Field (Fort Indiantown Gap) Airport,Muir,United States,40.434799,-76.569397
Kapalua Airport,Lahania-kapalua,United States,20.9629001617432,-156.673004150391
John F Kennedy International Airport,New York,United States,40.63980103,-73.77890015
Homestead ARB Airport,Homestead,United States,25.48859978,-80.38359833
Riverside Municipal Airport,Riverside,United States,33.95190048,-117.4449997
Sherman Army Air Field,Fort Leavenworth,United States,39.3683013916,-94.9147033691
Wallops Flight Facility Airport,Wallops Island,United States,37.9402008057,-75.4664001465
Holloman Air Force Base,Alamogordo,United States,32.8525009155,-106.107002258
Willow Grove Naval Air Station/Joint Reserve Base,Willow Grove,United States,40.19979858,-75.14820099
Cheyenne Regional Jerry Olson Field,Cheyenne,United States,41.15570068,-104.8119965
Stockton Metropolitan Airport,Stockton,United States,37.894199371338,-121.2379989624
Charleston Air Force Base-International Airport,Charleston,United States,32.89860153,-80.04049683
Reno Tahoe International Airport,Reno,United States,39.4990997314453,-119.767997741699
Ketchikan International Airport,Ketchikan,United States,55.35559845,-131.7140045
Willow Run Airport,Detroit,United States,42.23789978,-83.53040314
Vandenberg Air Force Base,Lompoc,United States,34.7373008728,-120.583999634
Birmingham-Shuttlesworth International Airport,Birmingham,United States,33.56290054,-86.75350189
Lakehurst Maxfield Field Airport,Lakehurst,United States,40.03329849,-74.353302
Eareckson Air Station,Shemya,United States,52.71229935,174.1139984
Nellis Air Force Base,Las Vegas,United States,36.2361984253,-115.033996582
March ARB Airport,Riverside,United States,33.880699,-117.259003
Modesto City Co-Harry Sham Field,Modesto,United States,37.62580109,-120.9540024
Sacramento International Airport,Sacramento,United States,38.6954002380371,-121.591003417969
Waukegan National Airport,Chicago,United States,42.422199249268,-87.867897033691
City of Colorado Springs Municipal Airport,Colorado Springs,United States,38.805801,-104.700996
Buffalo Niagara International Airport,Buffalo,United States,42.94049835,-78.73220062
Griffing Sandusky Airport,Sandusky,United States,41.4333992004,-82.6522979736
Snohomish County (Paine Field) Airport,Everett,United States,47.90629959,-122.2819977
Mountain Home Air Force Base,Mountain Home,United States,43.043598,-115.872002
Cedar City Regional Airport,Cedar City,United States,37.701000213623,-113.098999023438
Bradley International Airport,Windsor Locks,United States,41.9388999939,-72.6831970215
Mc Allen Miller International Airport,Mcallen,United States,26.17580032,-98.23860168
Norfolk Naval Station (Chambers Field),Norfolk,United States,36.937599,-76.289299
Westover ARB/Metropolitan Airport,Chicopee Falls,United States,42.19400024,-72.53479767
Lubbock Preston Smith International Airport,Lubbock,United States,33.663601,-101.822998
Chicago O'Hare International Airport,Chicago,United States,41.9786,-87.9048
Boca Raton Airport,Boca Raton,United States,26.3784999847,-80.1076965332
Fairbanks International Airport,Fairbanks,United States,64.81510162,-147.8560028
Quantico MCAF /Turner field,Quantico,United States,38.50170135,-77.30529785
Cannon Air Force Base,Clovis,United States,34.3828010559,-103.321998596
Kaneohe Bay MCAS (Marion E. Carl Field) Airport,Kaneohe Bay,United States,21.4505004883,-157.768005371
Offutt Air Force Base,Omaha,United States,41.118301391602,-95.912498474121
Gulkana Airport,Gulkana,United States,62.1548996,-145.4570007
Watertown International Airport,Watertown,United States,43.9919013977051,-76.0216979980469
Palm Springs International Airport,Palm Springs,United States,33.8297004699707,-116.50700378418
Rick Husband Amarillo International Airport,Amarillo,United States,35.219398,-101.706001
Fort Dodge Regional Airport,Fort Dodge,United States,42.55149841,-94.19259644
Barksdale Air Force Base,Shreveport,United States,32.5018005371,-93.6626968384
Topeka Regional Airport - Forbes Field,Topeka,United States,38.9509010315,-95.6635971069
Cotulla-La Salle County Airport,Cotulla,United States,28.45669937,-99.22029877
Wilmington International Airport,Wilmington,United States,34.2705993652344,-77.9026031494141
Baton Rouge Metropolitan Airport,Baton Rouge,United States,30.533199,-91.149597
Meridian Naval Air Station,Meridian,United States,32.55210114,-88.55560303
Tyler Pounds Regional Airport,Tyler,United States,32.3540992736816,-95.4023971557617
Baltimore/Washington International Thurgood Marshall Airport,Baltimore,United States,39.1754,-76.668297
Hobart Regional Airport,Hobart,United States,34.991317,-99.051313
Lanai Airport,Lanai,United States,20.7856006622314,-156.95100402832
Alexandria International Airport,Alexandria,United States,31.3274002075195,-92.5497970581055
Condron Army Air Field,White Sands,United States,32.34149933,-106.4029999
Cold Bay Airport,Cold Bay,United States,55.2061004638672,-162.725006103516
Tulsa International Airport,Tulsa,United States,36.1983985900879,-95.8880996704102
Sitka Rocky Gutierrez Airport,Sitka,United States,57.0471000671387,-135.361999511719
Long Island Mac Arthur Airport,Islip,United States,40.79520035,-73.10019684
Minneapolis-St Paul International/Wold-Chamberlain Airport,Minneapolis,United States,44.882,-93.221802
New Castle Airport,Wilmington,United States,39.67869949,-75.60649872
Unalaska Airport,Unalaska,United States,53.900100708,-166.544006348
Louis Armstrong New Orleans International Airport,New Orleans,United States,29.9934005737305,-90.2580032348633
Portland International Jetport Airport,Portland,United States,43.64619827,-70.30930328
Will Rogers World Airport,Oklahoma City,United States,35.3931007385254,-97.600700378418
Albany International Airport,Albany,United States,42.7482986450195,-73.8016967773438
Valdez Pioneer Field,Valdez,United States,61.13389969,-146.2480011
Langley Air Force Base,Hampton,United States,37.082901001,-76.360496521
John Wayne Airport-Orange County Airport,Santa Ana,United States,33.67570114,-117.8679962
Columbus Air Force Base,Colombus,United States,33.6437988281,-88.4438018799
Kendall-Tamiami Executive Airport,Kendall-tamiami,United States,25.6478996277,-80.432800293
Oceana Naval Air Station,Oceana,United States,36.820702,-76.033501
Grissom Air Reserve Base,Peru,United States,40.6481018066,-86.1520996094
Casper-Natrona County International Airport,Casper,United States,42.908001,-106.463997
Destin-Ft Walton Beach Airport,Valparaiso,United States,30.4832,-86.525398
Craig Field,Selma,United States,32.343898773193,-86.987800598145
Key West International Airport,Key West,United States,24.5561008453369,-81.7595977783203
Charlotte Douglas International Airport,Charlotte,United States,35.2140007019043,-80.9430999755859
McCarran International Airport,Las Vegas,United States,36.08010101,-115.1520004
Orlando International Airport,Orlando,United States,28.4293994903564,-81.3089981079102
Florence Regional Airport,Florence,United States,34.1853981018066,-79.7238998413086
Great Falls International Airport,Great Falls,United States,47.48199844,-111.3710022
Youngstown Warren Regional Airport,Youngstown,United States,41.26070023,-80.67910004
Ladd AAF Airfield,Fort Wainwright,United States,64.83750153,-147.6139984
Mc Minnville Municipal Airport,Mackminnville,United States,45.19440079,-123.1360016
Robins Air Force Base,Macon,United States,32.6400985718,-83.5919036865
Pullman Moscow Regional Airport,Pullman,United States,46.7439,-117.110001
Lewiston Nez Perce County Airport,Lewiston,United States,46.3745002746582,-117.014999389648
Elmira Corning Regional Airport,Elmira,United States,42.1599006652832,-76.8916015625
Ithaca Tompkins Regional Airport,Ithaca,United States,42.4910011291504,-76.4583969116211
Monterey Peninsula Airport,Monterey,United States,36.5870018005371,-121.843002319336
Santa Barbara Municipal Airport,Santa Barbara,United States,34.42620087,-119.8399963
Daytona Beach International Airport,Daytona Beach,United States,29.179899,-81.058098
Downtown-Manhattan/Wall St Heliport,New York,United States,40.70119858,-74.00900269
Talkeetna Airport,Talkeetna,United States,62.320499420166,-150.09399414062
Tweed New Haven Airport,New Haven,United States,41.26369858,-72.88680267
Asheville Regional Airport,Asheville,United States,35.4361991882324,-82.5418014526367
Piedmont Triad International Airport,Greensboro,United States,36.0978012084961,-79.9373016357422
Joe Foss Field Airport,Sioux Falls,United States,43.5820007324,-96.741897583
Manchester-Boston Regional Airport,Manchester NH,United States,42.932598,-71.435699
Naples Municipal Airport,Naples,United States,26.1525993347,-81.7752990723
Louisville International Standiford Field,Louisville,United States,38.1744,-85.736
Charlottesville Albemarle Airport,Charlottesville VA,United States,38.138599395752,-78.4529037475586
Roanoke–Blacksburg Regional Airport,Roanoke VA,United States,37.3255,-79.975403
Blue Grass Airport,Lexington KY,United States,38.0364990234375,-84.6059036254883
Evansville Regional Airport,Evansville,United States,38.0369987488,-87.5324020386
Albuquerque International Sunport,Albuquerque,United States,35.040199,-106.609001
Gallatin Field,Bozeman,United States,45.77750015,-111.1529999
Billings Logan International Airport,Billings,United States,45.8077011108398,-108.542999267578
Bert Mooney Airport,Butte,United States,45.9547996520996,-112.497001647949
Cherry Capital Airport,Traverse City,United States,44.7414016723633,-85.5821990966797
Hancock County-Bar Harbor Airport,Bar Harbor,United States,44.45000076,-68.3615036
Knox County Regional Airport,Rockland,United States,44.06010056,-69.09919739
Jackson Hole Airport,Jacksn Hole,United States,43.6072998046875,-110.737998962402
Chicago Rockford International Airport,Rockford,United States,42.1954002380371,-89.0971984863281
East 34th Street Heliport,New York,United States,40.7425,-73.971944
Greenville Spartanburg International Airport,Greenville,United States,34.8956985474,-82.2189025879
Central Illinois Regional Airport at Bloomington-Normal,Bloomington,United States,40.47710037,-88.91590118
Gulfport Biloxi International Airport,Gulfport,United States,30.4073009490967,-89.0700988769531
Kalamazoo Battle Creek International Airport,Kalamazoo,United States,42.2349014282227,-85.5521011352539
Toledo Express Airport,Toledo,United States,41.58679962,-83.80780029
Fort Wayne International Airport,Fort Wayne,United States,40.97850037,-85.19509888
Decatur Airport,Decatur,United States,39.8345985412598,-88.8656997680664
The Eastern Iowa Airport,Cedar Rapids,United States,41.8847007751465,-91.7108001708984
La Crosse Municipal Airport,La Crosse,United States,43.879002,-91.256699
Central Wisconsin Airport,Wassau,United States,44.7775993347,-89.6668014526
General Wayne A. Downing Peoria International Airport,Peoria,United States,40.6641998291,-89.6932983398
Appleton International Airport,Appleton,United States,44.2580986023,-88.5190963745
Rochester International Airport,Rochester,United States,43.9082984924316,-92.5
University of Illinois Willard Airport,Champaign,United States,40.03919983,-88.27809906
Manhattan Regional Airport,Manhattan,United States,39.140998840332,-96.6707992553711
Venango Regional Airport,Franklin,United States,41.3778991699,-79.8603973389
Grand Junction Regional Airport,Grand Junction,United States,39.1223983765,-108.527000427
St George Municipal Airport,Saint George,United States,37.036389,-113.510306
David Wayne Hooks Memorial Airport,Houston,United States,30.0618000031,-95.5528030396
Port O'Connor Private Heliport,Port O\'Connor,United States,28.429725,-96.444419
Sarasota Bradenton International Airport,Sarasota,United States,27.3953990936279,-82.5543975830078
Arthur Dunn Airpark,Titusville,United States,28.622552,-80.83541
Van Nuys Airport,Van Nuys,United States,34.209800720215,-118.48999786377
Quad City International Airport,Moline,United States,41.4485015869141,-90.5074996948242
Panama City-Bay Co International Airport,Panama City,United States,30.212099,-85.6828
Orlando,Orlando,United States,28.398,-81.57
Bismarck Municipal Airport,Bismarck,United States,46.7727012634277,-100.746002197266
Telluride Regional Airport,Telluride,United States,37.9538002,-107.9079971
Rapid City Regional Airport,Rapid City,United States,44.0452995300293,-103.056999206543
Mc Clellan-Palomar Airport,Carlsbad,United States,33.12829971,-117.2799988
Bishop International Airport,Flint,United States,42.9654006958008,-83.7435989379883
Redding Municipal Airport,Redding,United States,40.50899887,-122.2929993
Mahlon Sweet Field,Eugene,United States,44.1245994567871,-123.21199798584
Idaho Falls Regional Airport,Idaho Falls,United States,43.514599,-112.070999
Rogue Valley International Medford Airport,Medford,United States,42.3741989135742,-122.873001098633
Roberts Field,Redmond-Bend,United States,44.2541008,-121.1500015
Akron Canton Regional Airport,Akron,United States,40.9160995483398,-81.4421997070312
Huntsville International Carl T Jones Field,Huntsville,United States,34.637199401855,-86.775100708008
Mid Ohio Valley Regional Airport,PARKERSBURG,United States,39.345100402832,-81.4392013549805
Montgomery Regional (Dannelly Field) Airport,MONTGOMERY,United States,32.30059814,-86.39399719
Tri-Cities Regional TN/VA Airport,BRISTOL,United States,36.475201,-82.407401
Barkley Regional Airport,PADUCAH,United States,37.0607986450195,-88.7738037109375
Page Municipal Airport,Page,United States,36.92610168,-111.447998
Glacier Park International Airport,Kalispell,United States,48.3105010986328,-114.255996704102
MBS International Airport,Saginaw,United States,43.532901763916,-84.0795974731445
Greater Binghamton/Edwin A Link field,Binghamton,United States,42.20869827,-75.97979736
Blythe Airport,Blythe,United States,33.6192016602,-114.717002869
Petersburg James A Johnson Airport,Petersburg,United States,56.80170059,-132.9450073
Orlando Sanford International Airport,Sanford,United States,28.7775993347168,-81.2375030517578
John Murtha Johnstown Cambria County Airport,Johnstown,United States,40.3161010742188,-78.8339004516602
Missoula International Airport,Missoula,United States,46.91630173,-114.0910034
Grand Canyon National Park Airport,Grand Canyon,United States,35.9524002075195,-112.147003173828
Sugar Land Regional Airport,Sugar Land,United States,29.622299194336,-95.65650177002
Centennial Airport,Denver,United States,39.57009888,-104.848999
Clovis Municipal Airport,Clovis,United States,34.4250984192,-103.07900238
Fort Stockton Pecos County Airport,Fort Stockton,United States,30.9157009125,-102.916000366
Las Vegas Municipal Airport,Las Vegas,United States,35.6542015076,-105.141998291
West Houston Airport,Houston,United States,29.8181991577,-95.6725997925
La Junta Municipal Airport,La Junta,United States,38.04970169,-103.5090027
Las Cruces International Airport,Las Cruces,United States,32.2893981933594,-106.921997070312
Stephens County Airport,Breckenridge,United States,32.71900177,-98.8909988403
Draughon Miller Central Texas Regional Airport,Temple,United States,31.1525001525879,-97.4077987670898
Ozona Municipal Airport,Ozona,United States,30.735300064087,-101.20300292969
Eagle County Regional Airport,Vail,United States,39.64260101,-106.9179993
Stapleton,Denver,United States,39.779255,-104.88184
Cuyahoga County Airport,Richmond Heights,United States,41.5651016235,-81.4863967896
Mansfield Lahm Regional Airport,Mansfield,United States,40.8213996887,-82.5166015625
Columbus Metropolitan Airport,Columbus,United States,32.516300201416,-84.9389038085938
Lawton Fort Sill Regional Airport,Lawton,United States,34.5676994324,-98.4166030884
Northern Colorado Regional Airport,Fort Collins,United States,40.451804,-105.011
Flagstaff Pulliam Airport,Flagstaff,United States,35.13850021,-111.6709976
Lake Tahoe Airport,South Lake Tahoe,United States,38.8939018249512,-119.995002746582
Joslin Field Magic Valley Regional Airport,Twin Falls,United States,42.4818,-114.487999
Martha's Vineyard Airport,Vineyard Haven MA,United States,41.3931007385,-70.6143035889
Newport State,Newport RI,United States,41.533056,-71.282222
Hartness State,Springfield VT,United States,43.343333,-72.517222
Concord Municipal Airport,Concord NH,United States,43.20270157,-71.50229645
Sanford Regional,Sanford ME,United States,43.39383,-70.708
Groton New London Airport,Groton CT,United States,41.3301010131836,-72.0450973510742
St Cloud Regional Airport,Saint Cloud,United States,45.5466003417969,-94.0598983764648
Golden Triangle Regional Airport,Columbus Mississippi,United States,33.4502983093,-88.5914001465
Bowerman Airport,Hoquiam,United States,46.9711990356,-123.93699646
Erie International Tom Ridge Field,Erie,United States,42.0831270134,-80.1738667488
Barnstable Municipal Boardman Polando Field,Barnstable,United States,41.66930008,-70.28040314
Sedona Airport,Sedona,United States,34.848598480225,-111.78800201416
Dry Tortugas,Dry Tortugas,United States,24.62,-82.87
Dry Tortugas,Dry Tortugas,United States,24.62,24.62
Dry Tortugas,Dry Tortugas,United States,24.628,82.873
Morgantown Municipal Walter L. Bill Hart Field,Morgantown,United States,39.64289856,-79.91629791
Yeager Airport,Charleston,United States,38.3731002807617,-81.5932006835938
Wilkes Barre Scranton International Airport,Scranton,United States,41.3385009766,-75.7233963013
Bemidji Regional Airport,Bemidji,United States,47.50939941,-94.93370056
Hector International Airport,Fargo,United States,46.9207000732422,-96.815803527832
Charles B. Wheeler Downtown Airport,Kansas City,United States,39.1231994628906,-94.5927963256836
Gillette Campbell County Airport,Gillette,United States,44.3488998413,-105.539001465
El Toro Marine Corps Air Station,Santa Ana,United States,33.6761016845703,-117.731002807617
University Park Airport,State College Pennsylvania,United States,40.8493003845,-77.8487014771
Key Field,Meridian,United States,32.3325996398926,-88.7518997192383
Abraham Lincoln Capital Airport,Springfield,United States,39.84410095,-89.67790222
Cortez Municipal Airport,Cortez,United States,37.3030014038,-108.627998352
Yampa Valley Airport,Hayden,United States,40.48120117,-107.2180023
Gallup Municipal Airport,Gallup,United States,35.511100769,-108.789001465
Liberal Mid-America Regional Airport,Liberal,United States,37.0442009,-100.9599991
Lamar Municipal Airport,Lamar,United States,38.0696983337,-102.68800354
Renner Field-Goodland Municipal Airport,Goodland,United States,39.37060165,-101.6989975
Yellowstone Regional Airport,Cody,United States,44.520198822,-109.024002075
Springfield Branson National Airport,Springfield,United States,37.24570084,-93.38860321
Joplin Regional Airport,Joplin,United States,37.151798248291,-94.4982986450195
Lehigh Valley International Airport,Allentown,United States,40.652099609375,-75.440803527832
Northwest Arkansas Regional Airport,Bentonville,United States,36.281898,-94.306801
South Bend Regional Airport,South Bend,United States,41.7086982727051,-86.3172988891602
Smith Field,Fort Wayne IN,United States,41.14339828,-85.15280151
California Redwood Coast-Humboldt County Airport,Arcata CA,United States,40.978101,-124.109
Camp Mabry Austin City,Austin TX,United States,30.31666,-97.7666
Albert J Ellis Airport,Jacksonville NC,United States,34.8292007446,-77.6120986938
Tuscaloosa Regional Airport,Tuscaloosa AL,United States,33.220600128174,-87.611396789551
Dubuque Regional Airport,Dubuque IA,United States,42.40200043,-90.70950317
Aberdeen Regional Airport,Aberdeen,United States,45.4491004943848,-98.4217987060547
Southwest Georgia Regional Airport,Albany,United States,31.5354995727539,-84.1945037841797
Athens Ben Epps Airport,Athens,United States,33.948600769043,-83.326301574707
Alamogordo White Sands Regional Airport,Alamogordo,United States,32.8399009705,-105.990997314
Waterloo Regional Airport,Waterloo,United States,42.5570983886719,-92.4002990722656
Walla Walla Regional Airport,Walla Walla,United States,46.09489822,-118.288002
Alpena County Regional Airport,Alpena,United States,45.0780983,-83.56030273
Watertown Regional Airport,Watertown,United States,44.91400146,-97.15470123
Bradford Regional Airport,Bradford,United States,41.8031005859375,-78.6400985717773
Western Neb. Rgnl/William B. Heilig Airport,Scottsbluff,United States,41.87400055,-103.5960007
Raleigh County Memorial Airport,Beckley,United States,37.7873001099,-81.1241989136
Brunswick Golden Isles Airport,Brunswick,United States,31.2588005065918,-81.4664993286133
Southeast Iowa Regional Airport,Burlington,United States,40.7831993103027,-91.1255035400391
Jack Mc Namara Field Airport,Crescent City,United States,41.78020096,-124.2369995
Cape Girardeau Regional Airport,Cape Girardeau,United States,37.2252998352051,-89.57080078125
Chippewa County International Airport,Sault Ste Marie,United States,46.2508010864258,-84.4723968505859
North Central West Virginia Airport,Clarksburg,United States,39.2966003418,-80.2281036377
William R Fairchild International Airport,Port Angeles,United States,48.1202011108398,-123.5
Houghton County Memorial Airport,Hancock,United States,47.168399810791,-88.4890975952148
Dodge City Regional Airport,Dodge City,United States,37.7634010314941,-99.9655990600586
DuBois Regional Airport,Du Bois,United States,41.17829895,-78.8986969
Chippewa Valley Regional Airport,Eau Claire,United States,44.8657989501953,-91.4842987060547
Elko Regional Airport,Elko,United States,40.8249015808105,-115.791999816895
New Bedford Regional Airport,New Bedford,United States,41.6761016845703,-70.956901550293
Fayetteville Regional Grannis Field,Fayetteville,United States,34.9911994934082,-78.8803024291992
Wokal Field Glasgow International Airport,Glasgow,United States,48.212502,-106.614998
Central Nebraska Regional Airport,Grand Island,United States,40.9674987792969,-98.3096008300781
Memorial Field,Hot Springs,United States,34.4780006408691,-93.0961990356445
Tri-State/Milton J. Ferguson Field,Huntington,United States,38.36669922,-82.55799866
Kirksville Regional Airport,Kirksville,United States,40.0934982299805,-92.5448989868164
Jamestown Regional Airport,Jamestown,United States,46.92969894,-98.67819977
Laramie Regional Airport,Laramie,United States,41.3120994567871,-105.675003051758
Arnold Palmer Regional Airport,Latrobe,United States,40.27590179,-79.40480042
North Platte Regional Airport Lee Bird Field,North Platte,United States,41.12620163,-100.6839981
Lebanon Municipal Airport,Lebanon,United States,43.6260986328,-72.3041992188
Crater Lake-Klamath Regional Airport,Klamath Falls,United States,42.156101,-121.733002
Lancaster Airport,Lancaster,United States,40.1217002868652,-76.2960968017578
Lewistown Municipal Airport,Lewistown,United States,47.0493011474609,-109.467002868652
Lynchburg Regional Preston Glenn Field,Lynchburg,United States,37.3266983032227,-79.2004013061523
Muskegon County Airport,Muskegon,United States,43.16949844,-86.23819733
Frank Wiley Field,Miles City,United States,46.4280014038086,-105.886001586914
Northwest Alabama Regional Airport,Muscle Shoals,United States,34.74530029,-87.61019897
Southwest Oregon Regional Airport,North Bend,United States,43.4170989990234,-124.246002197266
Owensboro Daviess County Airport,Owensboro,United States,37.74010086,-87.16680145
Hattiesburg Laurel Regional Airport,Hattiesburg/Laurel,United States,31.4671001434326,-89.3370971679688
Pocatello Regional Airport,Pocatello,United States,42.9098014831543,-112.596000671387
Pierre Regional Airport,Pierre,United States,44.38270187,-100.2860031
Pellston Regional Airport of Emmet County Airport,Pellston,United States,45.57089996,-84.79669952
Portsmouth International at Pease Airport,Portsmouth,United States,43.0778999329,-70.8233032227
Reading Regional Carl A Spaatz Field,Reading,United States,40.3785018920898,-75.965202331543
Rhinelander Oneida County Airport,Rhinelander,United States,45.6311988830566,-89.4674987792969
Southwest Wyoming Regional Airport,Rock Springs,United States,41.5942,-109.065001
Rutland - Southern Vermont Regional Airport,Rutland,United States,43.52939987,-72.94960022
San Luis County Regional Airport,San Luis Obispo,United States,35.2368011475,-120.641998291
Sheridan County Airport,Sheridan,United States,44.7691993713379,-106.980003356934
Adirondack Regional Airport,Saranac Lake,United States,44.3852996826172,-74.2061996459961
Salina Municipal Airport,Salina,United States,38.7910003662109,-97.6521987915039
Santa Maria Pub/Capt G Allan Hancock Field,Santa Maria,United States,34.89889908,-120.4570007
Tupelo Regional Airport,Tupelo,United States,34.2681007385254,-88.7698974609375
Quincy Regional Baldwin Field,Quincy,United States,39.94269943,-91.19460297
Victoria Regional Airport,Victoria,United States,28.8526000976562,-96.9185028076172
Valdosta Regional Airport,Valdosta,United States,30.7824993133545,-83.2767028808594
Worland Municipal Airport,Worland,United States,43.9656982421875,-107.950996398926
Yakima Air Terminal McAllister Field,Yakima,United States,46.56819916,-120.5439987
Adak Airport,Adak Island,United States,51.8779983520508,-176.64599609375
Gustavus Airport,Gustavus,United States,58.4253006,-135.7070007
Skagway Airport,Skagway,United States,59.4600982666016,-135.315994262695
Holy Cross Airport,Holy Cross,United States,62.1883010864258,-159.774993896484
Haines Airport,Haines,United States,59.2438011169434,-135.524002075195
Kalskag Airport,Kalskag,United States,61.5363006591797,-160.341003417969
McGrath Airport,Mcgrath,United States,62.95289993,-155.6060028
Mountain Village Airport,Mountain Village,United States,62.095401763916,-163.682006835938
Aniak Airport,Aniak,United States,61.581600189209,-159.542999267578
Chevak Airport,Chevak,United States,61.5409,-165.6005
Wrangell Airport,Wrangell,United States,56.48429871,-132.3699951
Kalaupapa Airport,Molokai,United States,21.21100044,-156.973999
Aleknagik / New Airport,Aleknagik,United States,59.2826004028,-158.617996216
Brookings Regional Airport,Brookings,United States,44.3048,-96.8169
Mercer County Airport,Bluefield,United States,37.2957992553711,-81.2077026367188
Kearney Municipal Airport,Kearney,United States,40.727,-99.0068
Mid Delta Regional Airport,Greenville,United States,33.4828987121582,-90.9856033325195
Laughlin-Bullhead Intl,Bullhead,United States,35.1574,-114.56
Kingman Airport,Kingman,United States,35.2595,-113.938
Tri Cities Airport,Pasco,United States,46.2647018432617,-119.119003295898
Akutan Seaplane Base,Akutan,United States,54.1337704415,-165.778895617
Grant County Airport,Silver City,United States,32.6365,-108.156
Lopez Island Airport,Lopez,United States,48.4838981628418,-122.938003540039
Waikoloa Heliport,Waikoloa Village,United States,19.9205,-155.8607
Worcester Regional Airport,Worcester,United States,42.2672996520996,-71.8757019042969
New Rochelle Amtrak Station,New Rochelle,United States,40.913923,-73.782008
New Haven Rail Station,New Haven,United States,41.298669,-72.925992
Chicago Union Station,Chicago,United States,41.8791966,-87.6388507
Bremerton National Airport,Bremerton,United States,47.490200042725,-122.76499938965
Spencer Municipal Airport,Spencer,United States,43.165500640869,-95.202796936035
Jefferson City Memorial Airport,Jefferson City,United States,38.5912017822,-92.1560974121
Grand Canyon West Airport,Grand Canyon West,United States,35.5925,-113.4859
Boulder City Municipal Airport,Boulder City,United States,35.5651,-114.514
Glenview Amtrak Station,Glenview,United States,42.074197,-87.805346
Baltimore Penn Station,Baltimore,United States,39.307408,-76.615552
Provincetown Municipal Airport,Provincetown,United States,42.0718994141,-70.2213973999
Kenmore Air Harbor Seaplane Base,Seattle,United States,47.629,-122.339
Fullerton Municipal Airport,Fullerton,United States,33.8720016479,-117.980003357
Concord-Padgett Regional Airport,Concord,United States,35.387798,-80.709099
Friedman Memorial Airport,Hailey,United States,43.50439835,-114.2959976
Mason City Municipal Airport,Mason City,United States,43.1577987671,-93.3312988281
Phoenix-Mesa-Gateway Airport,Mesa,United States,33.30780029,-111.6549988
Fremont Airport,Fremont,United States,41.3331,-83.1612
Washington Union Station,Washington,United States,38.89746,-77.00643
Anaktuvuk Pass Airport,Anaktuvuk Pass,United States,68.13359833,-151.7429962
Anvik Airport,Anvik,United States,62.646702,-160.190994
Atqasuk Edward Burnell Sr Memorial Airport,Atqasuk,United States,70.4673004150391,-157.436004638672
Gambell Airport,Gambell,United States,63.7667999267578,-171.733001708984
Hooper Bay Airport,Hooper Bay,United States,61.52389908,-166.1470032
Kaltag Airport,Kaltag,United States,64.31909943,-158.7409973
St Mary's Airport,St Mary's,United States,62.0605011,-163.302002
Kivalina Airport,Kivalina,United States,67.736198425293,-164.563003540039
Mekoryuk Airport,Mekoryuk,United States,60.3713989257812,-166.27099609375
Point Hope Airport,Point Hope,United States,68.3488,-166.799
Ruby Airport,Ruby,United States,64.72720337,-155.4700012
Shishmaref Airport,Shishmaref,United States,66.249604,-166.089112
Savoonga Airport,Savoonga,United States,63.6864013671875,-170.49299621582
Noatak Airport,Noatak,United States,67.5661010742188,-162.975006103516
Arctic Village Airport,Arctic Village,United States,68.1147,-145.578995
Port Clarence Coast Guard Station,Port Clarence,United States,65.2537002563,-166.85899353
Hagerstown Regional Richard A Henson Field,Hagerstown,United States,39.707901,-77.72949982
Sand Point Airport,Sand Point,United States,55.314998626709,-160.522994995117
Deering Airport,Deering,United States,66.0696029663,-162.76600647
Igiugig Airport,Igiugig,United States,59.3240013122559,-155.901992797852
New Stuyahok Airport,New Stuyahok,United States,59.4499015808,-157.32800293
King Cove Airport,King Cove,United States,55.1162986755371,-162.266006469727
Port Heiden Airport,Port Heiden,United States,56.959098815918,-158.632995605469
Togiak Airport,Togiak Village,United States,59.0527992248535,-160.397003173828
Delta County Airport,Escanaba,United States,45.7226982117,-87.0936965942
Yakutat Airport,Yakutat,United States,59.5032997131,-139.660003662
Williamson County Regional Airport,Marion,United States,37.75500107,-89.01110077
Ford Airport,Iron Mountain,United States,45.8184013367,-88.1145019531
Marquette Airport,Marquette,United States,46.5339012145996,-87.5614013671875
Allakaket Airport,Allakaket,United States,66.5518035889,-152.621994019
East Glacier Park Amtrak Station,East Glacier,United States,48.443965,-113.218556
Michigan City Municipal Airport,Michigan City,United States,41.7033004761,-86.8211975098
Seward Airport,Seward,United States,60.1268997192383,-149.419006347656
McCarthy Airport,McCarthy,United States,61.4370608,-142.90307372
Silverton,Silverton,United States,37.812545,-107.662994
Porter County Municipal Airport,Valparaiso,United States,41.4539722,-87.0070833
Grand Marais Cook County Airport,Grand Marais,United States,47.8382987976,-90.3828964233
Mackinac Island Airport,Mackinac Island,United States,45.8649344,-84.637344
Gogebic Iron County Airport,Ironwood,United States,46.5274747,-90.1313967
Portage Municipal Airport,Portage,United States,43.5603136,-89.4828607
Wausau Downtown Airport,Wausau,United States,44.9262008667,-89.6266021729
Macomb Municipal Airport,Macomb,United States,40.5200833,-90.6523889
Point Roberts Airpark,Point Roberts,United States,48.9797222,-123.0788889
Delaware County Johnson Field,Muncie,United States,40.2422981262207,-85.3958969116211
Miami University Airport,Oxford,United States,39.5022607,-84.7843814
Purdue University Airport,Lafayette,United States,40.4123001098633,-86.936897277832
De Kalb Taylor Municipal Airport,De Kalb,United States,41.9338342,-88.7056864
Grand Geneva Resort Airport,Lake Geneva,United States,42.6149167,-88.3895833
Brown County Airport,Georgetown,United States,38.8819007873535,-83.882698059082
North Las Vegas Airport,Las Vegas,United States,36.21070098877,-115.19400024414
Kenosha Regional Airport,Kenosha,United States,42.59569931,-87.92780304
Clow International Airport,Bolingbrook,United States,41.6959744,-88.1292306
Montrose Regional Airport,Montrose CO,United States,38.5097999573,-107.893997192
Riverton Regional Airport,Riverton WY,United States,43.064201355,-108.459999084
Tyonek Airport,Tyonek,United States,61.076667,-151.138056
Eastern Oregon Regional At Pendleton Airport,Pendleton,United States,45.695098877,-118.841003418
Shoestring Aviation Airfield,Stewartstown,United States,39.7948244,-76.6471914
Door County Cherryland Airport,Sturgeon Bay,United States,44.8436667,-87.4215556
Cambridge Municipal Airport,Cambridge,United States,39.9750278,-81.5775833
Dowagiac Municipal Airport,Dowagiac,United States,41.9929342,-86.1280125
Putnam County Airport,Greencastle,United States,39.6335556,-86.8138056
Everglades Airpark,Everglades,United States,25.8488611,-81.3902778
Galt Field Airport,Greenwood,United States,42.4028889,-88.3751111
Waukesha County Airport,Waukesha,United States,43.0410278,-88.2370556
Southwest Michigan Regional Airport,Benton Harbor,United States,42.1285833,-86.4285
Wittman Regional Airport,Oshkosh,United States,43.9844017028809,-88.556999206543
Pangborn Memorial Airport,Wenatchee,United States,47.3988990784,-120.207000732
Fortman Airport,St. Marys,United States,40.5553253,-84.3866186
Byron Airport,Byron,United States,37.8284,-121.626
NAS Fort Worth JRB/Carswell Field,Dallas,United States,32.76919937,-97.4414978
Gary Chicago International Airport,Gary,United States,41.6162986755371,-87.4128036499023
Brainerd Lakes Regional Airport,Brainerd,United States,46.39830017,-94.13809967
Greenbrier Valley Airport,Lewisburg,United States,37.8582992554,-80.3994979858
Pitt Greenville Airport,Greenville,United States,35.6352005,-77.38529968
Chefornak Airport,Chefornak,United States,60.1492004395,-164.285995483
Oxnard Airport,Oxnard,United States,34.200801849365,-119.20700073242
Branson Airport,Branson,United States,36.532082,-93.200544
Penn Station,Baltimore,United States,39.307222,-76.615556
Penn Station,New York,United States,40.7505,-73.9935
Schenectady County Airport,Scotia NY,United States,42.852500915527,-73.928901672363
Northeast Florida Regional Airport,St. Augustine Airport,United States,29.9592,-81.339798
Charles M. Schulz Sonoma County Airport,Santa Rosa,United States,38.50899887,-122.8130035
Kissimmee Gateway Airport,Kissimmee,United States,28.2898006439,-81.4371032715
Lake City Gateway Airport,Lake City,United States,30.1819992065,-82.5768966675
Deland Municipal Sidney H Taylor Field,DeLand,United States,29.06699944,-81.28379822
Haller Airpark,Green Cove Springs,United States,29.904057,-81.68515
Logan-Cache Airport,Logan,United States,41.7911987305,-111.851997375
Brigham City Regional Airport,Brigham City,United States,41.552399,-112.061996
Malad City Airport,Malad City,United States,42.1665992736816,-112.296997070312
Aspen-Pitkin Co/Sardy Field,Aspen,United States,39.22320175,-106.8690033
Hilton Head,Hilton Head,United States,32.216,-80.752
Philadelphia 30th St Station,Philadelphia,United States,39.9557,-75.182
KBWD,Brownwood,United States,31.7936111,-98.9565
Mexia - Limestone County Airport,Mexia,United States,31.6411783,-96.5144594
Kerrville Municipal Louis Schreiner Field,Kerrville,United States,29.9766998291,-99.0857009888
Sussex County Airport,Georgetown,United States,38.68920135,-75.35890198
Great Bend Municipal Airport,Great Bend,United States,38.3442993164,-98.8591995239
Hays Regional Airport,Hays,United States,38.84220123,-99.27320099
Spirit of St Louis Airport,Null,United States,38.662101745605,-90.652000427246
Ely Municipal Airport,Ely,United States,47.82450104,-91.83070374
Grand Rapids Itasca Co-Gordon Newstrom field,Grand Rapids MN,United States,47.21110153,-93.50980377
Thief River Falls Regional Airport,Thief River Falls,United States,48.06570053,-96.18499756
Eagle River Union Airport,Eagle River,United States,45.9323005676,-89.2683029175
Lakeland-Noble F. Lee Memorial field,Minocqua - Woodruff,United States,45.92789841,-89.73090363
Ankeny Regional Airport,Ankeny,United States,41.6913986206055,-93.5663986206055
Corpus Christi Naval Air Station/Truax Field,Corpus Christi,United States,27.69260025,-97.29109955
Catalina Airport,Catalina Island,United States,33.4049,-118.416
Mojave Airport,Mojave,United States,35.05939865,-118.1520004
Kenmore Air Harbor Inc Seaplane Base,Kenmore,United States,47.7548,-122.259
Hutchinson Municipal Airport,Hutchinson,United States,38.0654983521,-97.8606033325
Eagle County Airport,Eagle,United States,39.6427611,-106.9159347
Oak Lawn Train Station,Oak Lawn,United States,41.7198242969588,-87.7488327026367
Wrigleyville,Chicago,United States,41.948958067066,-87.6587533950806
Rosecrans Memorial Airport,Rosecrans,United States,39.771900177002,-94.909698486328
Hartford Union Station,Hartford,United States,41.76888,-72.6815
Stamford Amtrak Station,Stamford,United States,41.046937,-73.541493
Newark Penn Station,Newark,United States,40.734722,-74.164167
Volk Field,Camp Douglas,United States,43.938999176025,-90.253402709961
Gunnison Crested Butte Regional Airport,Gunnison,United States,38.53390121,-106.9329987
Zamperini Field,Torrance,United States,33.803398132324,-118.33999633789
Manistee Co Blacker Airport,Manistee,United States,44.2723999,-86.24690247
Hickam Air Force Base,Honolulu,United States,21.318681,-157.922427
Charlotte County Airport,Punta Gorda,United States,26.92020035,-81.9905014
Grand Canyon Heliport,Grand Canyon,United States,35.96666666,-112.13333333
Northern Aroostook Regional Airport,Frenchville,United States,47.2854995728,-68.3127975464
Chautauqua County-Jamestown Airport,Jamestown,United States,42.15340042,-79.25800323
Lake Cumberland Regional Airport,Somerset,United States,37.0533981323,-84.6158981323
Shenandoah Valley Regional Airport,Weyers Cave,United States,38.2638015747,-78.8964004517
Devils Lake Regional Airport,Devils Lake,United States,48.11420059,-98.90879822
Dickinson Theodore Roosevelt Regional Airport,Dickinson,United States,46.7974014282,-102.802001953
Sidney - Richland Regional Airport,Sidney,United States,47.706902,-104.193001
Chadron Municipal Airport,Chadron,United States,42.837600708,-103.095001221
Alliance Municipal Airport,Alliance,United States,42.0531997681,-102.804000854
Mc Cook Ben Nelson Regional Airport,McCook,United States,40.20629883,-100.5920029
The Florida Keys Marathon Airport,Marathon,United States,24.726101,-81.051399
Dawson Community Airport,Glendive,United States,47.13869858,-104.8069992
L M Clayton Airport,Wolf Point,United States,48.0945014954,-105.574996948
Yellowstone Airport,West Yellowstone,United States,44.68840027,-111.1179962
San Luis Valley Regional Bergman Field,Alamosa,United States,37.434898,-105.866997
Canyonlands Field,Moab,United States,38.75500107,-109.7549973
Ely Airport Yelland Field,Ely,United States,39.29970169,-114.8420029
Vernal Regional Airport,Vernal,United States,40.4408989,-109.5100021
Sierra Blanca Regional Airport,Ruidoso,United States,33.462799072266,-105.53500366211
Show Low Regional Airport,Show Low,United States,34.265499115,-110.005996704
McCall Municipal Airport,McCall,United States,44.88970184,-116.1009979
Lemhi County Airport,Salmon,United States,45.1237983704,-113.880996704
Mammoth Yosemite Airport,Mammoth Lakes,United States,37.62409973,-118.8379974
Friday Harbor Airport,Friday Harbor,United States,48.5219993591,-123.024002075
Orcas Island Airport,Eastsound,United States,48.7081985474,-122.910003662
Anacortes Airport,Anacortes,United States,48.498889,-122.6625
Astoria Regional Airport,Astoria,United States,46.158000946,-123.878997803
Newport Municipal Airport,Newport,United States,44.580399,-124.057999
Emmonak Airport,Emmonak,United States,62.78609848,-164.4909973
Unalakleet Airport,Unalakleet,United States,63.88840103,-160.798996
Ugnu-Kuparuk Airport,Kuparuk,United States,70.3308029175,-149.598007202
Shageluk Airport,Shageluk,United States,62.6922988892,-159.569000244
Chuathbaluk Airport,Chuathbaluk,United States,61.579102,-159.216003
Nuiqsut Airport,Nuiqsut,United States,70.2099990845,-151.005996704
Eek Airport,Eek,United States,60.21367264,-162.0438843
Kasigluk Airport,Kasigluk,United States,60.87440109,-162.5240021
Kwethluk Airport,Kwethluk,United States,60.7902984619,-161.444000244
Kwigillingok Airport,Kwigillingok,United States,59.876499,-163.169005
Marshall Don Hunter Sr Airport,Marshall,United States,61.8642997742,-162.026000977
Russian Mission Airport,Russian Mission,United States,61.7788848877,-161.319458008
Tuntutuliak Airport,Tuntutuliak,United States,60.335278,-162.666944
Ekwok Airport,Ekwok,United States,59.356944,-157.471111
Koliganek Airport,Koliganek,United States,59.726600647,-157.259002686
Levelock Airport,Levelock,United States,59.128056,-156.858611
Manokotak Airport,Manokotak,United States,58.9902000427,-159.050003052
Twin Hills Airport,Twin Hills,United States,59.074444,-160.275
Chalkyitsik Airport,Chalkyitsik,United States,66.6449966431,-143.740005493
Eagle Airport,Eagle,United States,64.77639771,-141.151001
Hughes Airport,Hughes,United States,66.04109955,-154.2630005
Huslia Airport,Huslia,United States,65.69789886,-156.3509979
Livingood Airport,Livingood,United States,65.531111,-148.541111
Minto Airport,Minto,United States,65.143611,-149.37
Nulato Airport,Nulato,United States,64.729301,-158.074005
Rampart Airport,Rampart,United States,65.507778,-150.140833
Tanana Airport,Tanana,United States,65.179556,-152.075833
Venetie Airport,Venetie,United States,67.0086975098,-146.365997314
Beaver Airport,Beaver,United States,66.362197876,-147.406997681
Central Airport,Central,United States,65.57379913,-144.7830048
Shungnak Airport,Shungnak,United States,66.88809967041,-157.16200256348
Birch Creek Airport,Brich Creek,United States,66.256708,-145.815319
Coldfoot Airport,Coldfoot,United States,67.251389,-150.176111
Inyokern Airport,Inyokern,United States,35.65879822,-117.8300018
Visalia Municipal Airport,Visalia,United States,36.3186988831,-119.392997742
Merced Regional Macready Field,Merced,United States,37.28469849,-120.5139999
Phoenix Goodyear Airport,Goodyear,United States,33.4225006104,-112.375999451
Park City,Park City,United States,40.659444,-111.4997222
Angoon Seaplane Base,Angoon,United States,57.503601,-134.585007
Elfin Cove Seaplane Base,Elfin Cove,United States,58.1952018738,-136.347000122
Tenakee Seaplane Base,Tenakee Springs,United States,57.779722,-135.218333
Pelican Seaplane Base,Pelican,United States,57.955278,-136.236389
Chatham Seaplane Base,Sitka,United States,57.515,-134.946111
Funter Bay Seaplane Base,Funter Bay,United States,58.2543983459,-134.897994995
Excursion Inlet Seaplane Base,Excursion Inlet,United States,58.420556,-135.449167
Hoonah Airport,Hoonah,United States,58.0961,-135.410111
Kake Airport,Kake,United States,56.9613990784,-133.910003662
Craig Seaplane Base,Craig,United States,55.478889,-133.147778
Hollis Seaplane Base,Hollis,United States,55.481667,-132.646111
Metlakatla Seaplane Base,Metakatla,United States,55.131001,-131.578003
Thorne Bay Seaplane Base,Thorne Bay,United States,55.688056,-132.536667
Hydaburg Seaplane Base,Hydaburg,United States,55.206298828125,-132.828002929688
Hyder Seaplane Base,Hyder,United States,55.903333,-130.006667
Point Baker Seaplane Base,Point Baker,United States,56.351944,-133.6225
Port Protection Seaplane Base,Port Protection,United States,56.328889,-133.61
North Whale Seaplane Base,North Whale Pass,United States,56.116389,-133.121667
Chignik Lake Airport,Chignik Lake,United States,56.255,-158.775278
Egegik Airport,Egegik,United States,58.1855010986,-157.375
Chignik Lagoon Airport,Chignik Lagoon,United States,56.311111,-158.534167
Chignik Bay Seaplane Base,Chignik,United States,56.295556,-158.401398
Perryville Airport,Perryville,United States,55.905998,-159.162993
Pilot Point Airport,Pilot Point,United States,57.5803985596,-157.572006226
South Naknek Nr 2 Airport,South Naknek,United States,58.7033996582,-157.007995605
Akhiok Airport,Akhiok,United States,56.9387016296,-154.182998657
Karluk Airport,Karluk,United States,57.5671005249,-154.449996948
Larsen Bay Airport,Larsen Bay,United States,57.5350990295,-153.977996826
Old Harbor Airport,Old Harbor,United States,57.218056,-153.269722
Ouzinkie Airport,Ouzinkie,United States,57.922876,-152.500511
Port Lions Airport,Port Lions,United States,57.885278,-152.846111
Alitak Seaplane Base,Lazy Bay,United States,56.899444,-154.247778
Amook Bay Seaplane Base,Amook Bay,United States,57.471389,-153.815278
Kitoi Bay Seaplane Base,Kitoi Bay,United States,58.190833,-152.370556
Moser Bay Seaplane Base,Moser Bay,United States,57.025556,-154.145833
Olga Bay Seaplane Base,Olga Bay,United States,57.161389,-154.229722
Port Bailey Seaplane Base,Port Bailey,United States,57.93,-153.040556
Port Williams Seaplane Base,Port Williams,United States,58.49,-152.582222
Seal Bay Seaplane Base,Seal Bay,United States,58.166667,-152.5
San Juan - Uganik Seaplane Base,San Juan,United States,57.730278,-153.320556
West Point Village Seaplane Base,West Point,United States,57.77,-153.548889
Zachar Bay Seaplane Base,Zachar Bay,United States,57.55,-153.75
Ambler Airport,Ambler,United States,67.1063,-157.856989
Buckland Airport,Buckland,United States,65.9815979004,-161.149002075
Bob Baker Memorial Airport,Kiana,United States,66.9759979248,-160.43699646
Kobuk Airport,Kobuk,United States,66.9123001099,-156.897003174
Robert (Bob) Curtis Memorial Airport,Noorvik,United States,66.81790161,-161.0189972
Selawik Airport,Selawik,United States,66.60009766,-159.9859924
Brevig Mission Airport,Brevig Mission,United States,65.3312988281,-166.466003418
Elim Airport,Elim,United States,64.61470032,-162.2720032
Golovin Airport,Golovin,United States,64.5504989624,-163.007003784
Teller Airport,Teller,United States,65.2404022217,-166.339004517
Wales Airport,Wales,United States,65.622593,-168.095
White Mountain Airport,White Mountain,United States,64.689201355,-163.412994385
Council Airport,Council,United States,64.897778,-163.703333
Koyuk Alfred Adams Airport,Koyuk,United States,64.9394989014,-161.154006958
St Michael Airport,St. Michael,United States,63.49010086,-162.1100006
Shaktoolik Airport,Shaktoolik,United States,64.37110138,-161.223999
Stebbins Airport,Stebbins,United States,63.515833,-162.278056
Tin City Long Range Radar Station Airport,Tin City,United States,65.56310272,-167.9219971
Atka Airport,Atka,United States,52.22029877,-174.2059937
Nikolski Air Station,Nikolski,United States,52.9416007995605,-168.848999023438
Icy Bay Airport,Icy Bay,United States,59.968889,-141.661667
Yakataga Airport,Yakataga,United States,60.080974,-142.494541
Alakanuk Airport,Alakanuk,United States,62.6800422668,-164.659927368
Sheldon Point Airport,Nunam Iqua,United States,62.520556,-164.847778
Kipnuk Airport,Kipnuk,United States,59.9329986572,-164.031005859
False Pass Airport,False Pass,United States,54.8474006652832,-163.410003662109
Nelson Lagoon Airport,Nelson Lagoon,United States,56.007499694824,-161.16000366211
Port Moller Airport,Cold Bay,United States,56.0060005188,-160.561004639
Klawock Airport,Klawock,United States,55.5792007446,-133.076004028
Quinhagak Airport,Quinhagak,United States,59.7551,-161.845
Kotlik Airport,Kotlik,United States,63.0306015015,-163.533004761
Koyukuk Airport,Koyukuk,United States,64.8760986328,-157.727005005
Scammon Bay Airport,Scammon Bay,United States,61.8452987671,-165.570999146
Nondalton Airport,Nondalton,United States,59.980201721191,-154.8390045166
Pedro Bay Airport,Pedro Bay,United States,59.782222,-154.1325
Nunapitchuk Airport,Nunapitchuk,United States,60.905833,-162.439167
Kongiganak Airport,Kongiganak,United States,59.9608001709,-162.880996704
Nikolai Airport,Nikolai,United States,63.0186,-154.358002
Takotna Airport,Takotna,United States,62.971944,-156.082778
Pilot Station Airport,Pilot Station,United States,61.934444,-162.899444
Akiak Airport,Akiak,United States,60.9029006958,-161.231002808
Tuluksak Airport,Tuluksak,United States,61.096944,-160.969444
Grayling Airport,Grayling,United States,62.894444,-160.065
Wainwright Airport,Wainwright,United States,70.6380004883,-159.994995117
Chenega Bay Airport,Chenega,United States,60.0773010254,-147.992004395
Chisana Airport,Chisana,United States,62.071111,-142.048333
Tok Junction Airport,Tok,United States,63.32949829,-142.9539948
Circle City /New/ Airport,Circle,United States,65.830498,-144.076008
Coffman Cove Seaplane Base,Coffman Cove,United States,56.014722,-132.833889
Crooked Creek Airport,Crooked Creek,United States,61.867778,-158.135
Red Devil Airport,Red Devil,United States,61.788056,-157.350278
Sleetmute Airport,Sleetmute,United States,61.7005004883,-157.166000366
Stony River 2 Airport,Stony River,United States,61.7875,-156.591111
Healy River Airport,Healy,United States,63.8661994934082,-148.968994140625
Kake Seaplane Base,Kake,United States,56.973056,-133.945556
Klawock Seaplane Base,Klawock,United States,55.5546989440918,-133.102005004883
Minchumina Airport,Lake Minchumina,United States,63.886002,-152.302002
Manley Hot Springs Airport,Manley Hot Springs,United States,64.9975967407,-150.643997192
St. George Airport,St. George,United States,56.577222,-169.663611
Tatitlek Airport,Tatitlek,United States,60.8725,-146.691111
Ketchikan harbor Seaplane Base,Ketchikan,United States,55.344444,-131.663333
Lancaster Amtrak Station,Lancaster,United States,40.05,-76.31
Ardmore Amtrak Station,Ardmore,United States,40.01,-75.29
Metropark Amtrak Station,Iselin,United States,40.568,-74.3275
St. Louis Downtown Airport,East St. Louis,United States,38.5707244,-90.1562211
Newport News Amtrak Station,Newport News,United States,37.0228,-76.4519
Portland Union Station,Portland,United States,45.529,-122.6768
Westport Amtrak Station,Westport,United States,44.1871,-73.4519
Trenton Amtrak Station,Trenton,United States,40.21889,-74.75417
North Philadelphia Amtrak Station,Philadelphia,United States,39.9969556,-75.1487722
Herbert Glacier,Juneau,United States,58.571385,-134.607754
Seattle Cruise Terminal,Seattle,United States,47.615884,-122.330017
Juneau Cruise Pier,Juneau,United States,58.335451,-134.414978
Skagway Cruise Pier,Skagway,United States,59.470896,-135.31723
Ketchikan Cruise Pier,Ketchikan ,United States,55.346327,-131.644707
Eastern WV Regional Airport/Shepherd Field,Martinsburg,United States,39.40190125,-77.98459625
Rock Hill - York County Airport,Rock Hill,United States,34.9878006,-81.05719757
Allegheny County Airport,Pittsburgh,United States,40.3544006347656,-79.9301986694336
Cecil Airport,Jacksonville,United States,30.2187004089,-81.876701355
Fulton County Airport Brown Field,Atlanta,United States,33.7790985107,-84.5214004517
Four Corners,Four Corners,United States,36.998976,-109.045172
Odell Williamson Municipal,Ocean Isle Beach,United States,33.9085056,-78.4366722
The Ohio State University Airport - Don Scott Field,Columbus,United States,40.0798,-83.072998
Addison Airport,Addison,United States,32.9686012268,-96.8364028931
Destin Executive Airport,Destin,United States,30.40010071,-86.47149658
Fort Jefferson,Fort Jefferson - Dry Tortugas,United States,24.61667,-82.86667
Kinston Regional Jetport At Stallings Field,Kinston,United States,35.331401825,-77.6088027954
First Flight Airport,Kill Devil Hills,United States,36.0181999207,-75.6713027954
Provo Municipal Airport,Provo,United States,40.219200134277,-111.72299957275
Steamboat Springs Bob Adams Field,Steamboat Springs,United States,40.5163002,-106.8659973
Delta Municipal Airport,Delta,United States,39.3805999756,-112.508003235
Richfield Municipal Airport,Richfield,United States,38.736400604248,-112.098999023438
Carbon County Regional/Buck Davis Field,Price,United States,39.61389923,-110.7509995
Los Alamos Airport,Los Alamos,United States,35.8797988892,-106.268997192
Borrego Valley Airport,Borrego Springs,United States,33.2590278,-116.3209722
Lake Havasu City Airport,Lake Havasu City,United States,34.571098,-114.358002
Winslow Lindbergh Regional Airport,Winslow,United States,35.021900177,-110.722999573
Douglas Municipal Airport,Douglas,United States,31.3425998688,-109.505996704
Bartow Municipal Airport,Bartow,United States,27.9433994293,-81.7834014893
Livermore Municipal Airport,Livermore,United States,37.6934013367,-121.819999695
Mariposa Yosemite Airport,Mariposa,United States,37.5108985901,-120.040000916
Liskeard Station,Liskeard,United States,50.44708,-4.46753
Neets Bay,Ketchikan,United States,55.778889,-131.601389
Jacqueline Cochran Regional Airport,Palm Springs,United States,33.62670135498,-116.16000366211
Santa Monica Municipal Airport,Santa Monica,United States,34.0158004761,-118.450996399
Bermuda Dunes Airport,Palm Springs,United States,33.748401641846,-116.27500152588
Scottsdale Airport,Scottsdale,United States,33.622898101807,-111.91100311279
Olympia Regional Airport,Olympia,United States,46.9693985,-122.9029999
Yolo County Davis Woodland Winters Airport,Davis-Woodland-Winters,United States,38.57910156,-121.8570023
Garfield County Regional Airport,Rifle,United States,39.526299,-107.726997
Shively Field,SARATOGA,United States,41.444901,-106.823997
DeKalb Peachtree Airport,Atlanta,United States,33.8755989075,-84.3020019531
Monroe County Airport,Bloomington,United States,39.1459999084473,-86.61669921875
Witham Field,Stuart,United States,27.18169975,-80.22109985
Morristown Municipal Airport,Morristown,United States,40.7994003295898,-74.4149017333984
Napa County Airport,Napa,United States,38.2132,-122.280998
Brown Field Municipal Airport,San Diego,United States,32.572299957275,-116.98000335693
Pahokee Airport,Pahokee,United States,26.789,-80.692
Venice Municipal Airport,Venice,United States,27.071599960327,-82.440299987793
Palm Beach County Glades Airport,Pahokee,United States,26.78499985,-80.69339752
Northwest Florida Beaches International Airport,Panama City,United States,30.357106,-85.795414
San Bernardino International Airport,San Bernardino,United States,34.0954017639,-117.23500061
San Carlos Airport,San Carlos,United States,37.511901855469,-122.25
Rocky Mount Wilson Regional Airport,Rocky Mount,United States,35.8563003540039,-77.8918991088867
Whittier Airport,Whittier,United States,60.7771987915039,-148.72200012207
Soldotna Airport,Soldotna,United States,60.475700378418,-151.033996582031
Gillespie Field,El Cajon,United States,32.826198577881,-116.97200012207
San Clemente Island Naval Auxiliary Landing Field,San Clemente Island,United States,33.02270126,-118.5879974
Truckee Tahoe Airport,Truckee,United States,39.3199996948,-120.13999939
Detroit Amtrak Station,Detroit,United States,42.368097,-83.072397
Ventura Amtrak,Ventura,United States,34.27833,-119.29222
Cobb County-Mc Collum Field,Atlanta,United States,34.01319885,-84.59860229
Oneonta Municipal Airport,Oneonta,United States,42.524722,-75.064444
Dell Flight Strip,Dell,United States,44.7356987,-112.720001221
Mission Field,Livingston-Montana,United States,45.6994018555,-110.447998047
Big Timber Airport,Big Timber,United States,45.8064002990723,-109.981002807617
Tulip City Airport,Holland,United States,42.742900848389,-86.107398986816
Monument Valley Airport,Monument Valley,United States,37.0167007446,-110.200996399
West 30th St. Heliport,New York,United States,40.754501,-74.007103
Lakeland Linder International Airport,Lakeland,United States,27.988899,-82.018602
Fort Lauderdale Cruise Terminal,Fort Lauderdale,United States,26.0882,-80.115373
Miami Cruise Terminal,Miami,United States,25.779701,-80.177279
Los Angeles San Pedro Cruise Terminal,Los Angeles,United States,33.747198,-118.276856
Kailua Kona Harbor,Kailua Kona Hawaii,United States,19.635393,-155.998328
Kauai Cruise Terminal Nawiliwili,Nawiliwili Kauai Hawaii,United States,21.954549,-159.355981
Hilo Cruise Terminal Hawaii,Hilo Hawaii,United States,19.730967,-155.054094
Honolulu Cruise Terminal Oahu,Honolulu Oahu,United States,21.301185,-157.865671
Lahaina Harbor Maui Hawaii,Lahaina Maui Hawaii,United States,20.876456,-156.683235
Seattle Cruise Terminal,Seattle WA,United States,47.611241,-122.350026
Indianola Municipal Airport,New York,United States,33.485699,-90.678902
French Valley Airport,Murrieta-Temecula,United States,33.5741996765,-117.127998352
Anchorage Main Station,Anchorage Alaska,United States,61.221749,-149.890852
Seward Train Station,Seward Alaska,United States,60.121586,-149.439983
Carl R Keller Field,Port Clinton,United States,41.516300201416,-82.8686981201172
Dayton-Wright Brothers Airport,Dayton,United States,39.5890007019,-84.224899292
Richmond Municipal Airport,Richmond,United States,39.7571983337402,-84.8427963256836
Findlay Airport,Findley,United States,41.0135002136,-83.6687011719
Black Hills Airport-Clyde Ice Field,Spearfish-South Dakota,United States,44.48030090332,-103.78299713135
Olive Branch Airport,Olive Branch,United States,34.9786987305,-89.7869033813
Rocky Mountain Metropolitan Airport,Broomfield-CO,United States,39.90879822,-105.1169968
Minot Train Station,Minot,United States,48.2361,-101.2987
Havre Train Station,Havre,United States,48.55457,-109.67836
Wishram Train Station,Wishram,United States,45.6576,-120.9664
Salem Municipal Airport/McNary Field,Salem,United States,44.90950012,-123.0029984
Tunica Municipal Airport,Tunica,United States,34.680999755859,-90.346702575684
Lawrence J Timmerman Airport,Milwaukee,United States,43.110401,-88.034401
Southern Wisconsin Regional Airport,Janesville,United States,42.620300293,-89.0416030884
Arlington Municipal Airport,Arlington,United States,32.6638984680176,-97.0942993164062
Gwinnett County Briscoe Field,Lawrenceville,United States,33.97809982,-83.96240234
Bowling Green Warren County Regional Airport,Bowling Green,United States,36.9645004272,-86.4197006226
Richard Lloyd Jones Jr Airport,Tulsa,United States,36.039600372314,-95.984596252441
Emeryville Amtrak Station,Emeryville,United States,37.8405149,-122.29134
Bakersfield Amtrak Station,Bakersfield,United States,35.372159,-119.008393
Bryce Canyon Airport,Bryce Canyon,United States,37.706401825,-112.144996643
Burlington Alamance Regional Airport,Burlington,United States,36.0485000610352,-79.4748992919922
New Century Aircenter Airport,Olathe,United States,38.8308982849,-94.890296936
Easton Newnam Field,Easton,United States,38.8041992188,-76.0690002441
Ferry County Airport,Republic,United States,48.7182058,-118.6564714
Yuba County Airport,Yuba City,United States,39.09780121,-121.5699997
Halliburton Field,Duncan,United States,34.47090149,-97.9598999
Port Authority Bus Terminal,New York,United States,40.75616,-73.9906
Chinle Municipal Airport,Chinle,United States,36.1108806,-109.5754222
Garner Field,Uvalde,United States,29.2112998962,-99.743598938
Lewis University Airport,Lockport,United States,41.6072998,-88.09619904
Frasca Field,Urbana,United States,40.144979,-88.200197
Buchanan Field,Concord,United States,37.9897003174,-122.056999207
Ocean Reef Club Airport,Ocean Reef Club Airport,United States,25.325399398804,-80.274803161621
Denver Union Station,Denver,United States,39.753187,-105.000093
DELETE,DELETE,United States,-1.1111,-1.1111
Ohio University Snyder Field,Athens,United States,39.2109985352,-82.2313995361
Springfield-Beckley Municipal Airport,Springfield,United States,39.840301513672,-83.840202331543
Miami Seaplane Base,Miami,United States,25.7783,-80.1703
Philip Billard Municipal Airport,Topeka,United States,39.068698883057,-95.622497558594
Emporia Municipal Airport,Emporia,United States,38.3321,-96.1912
Benson Airstrip,Uvalde,United States,29.2294006347656,-99.8238983154297
Rough River State Park Airport,Null,United States,37.610022,-86.507262
Smyrna Airport,Smyrna,United States,36.0089988708,-86.5201034546
Franklin County Airport,Sewanee,United States,35.205101013184,-85.898101806641
Collin County Regional At Mc Kinney Airport,DALLAS,United States,33.17789841,-96.59049988
Chicago Executive Airport,Chicago-Wheeling,United States,42.114222,-87.901494
Southwest Washington Regional Airport,Kelso,United States,46.1180000305,-122.898002625
Put-in-Bay Airport,Put-in-Bay,United States,41.3521,-82.497
Glenwood Springs Train Station,Glenwood Springs,United States,39.548,-107.3233
Grand Junction Train Station,Grand Junction,United States,39.0646,-108.5705
Reno Amtrak Station,Reno,United States,39.5287,-119.8116
Sacramento Amtrak Station,Sacramento,United States,38.584791,-121.500517
Jefferson County Intl,Port Townsend,United States,48.0314,-122.4838
Lynden Airport,Lynden,United States,48.9558961,-122.4581183
Jefferson County Intl,Port Townsend,United States,48.0538086,-122.8106436
Boston South Station,Boston,United States,42.35,-71.0558
Train Station,Richmond,United States,37.5343,-77.42945
Wilmington Airpark,Wilmington,United States,39.427898407,-83.792098999
Marana Regional Airport,Tucson,United States,32.4095993042,-111.218002319
Casa Grande Municipal Airport,Casa Grande,United States,32.954899,-111.766998
Mobile Airport,Mobile,United States,33.1119003295898,-112.268997192383
Buckeye Municipal Airport,Buckeye,United States,33.42039871,-112.685997
Gila Bend Municipal Airport,Gila Bend,United States,32.95809937,-112.6780014
McMinn County Airport,Athens,United States,35.39730072,-84.56259918
Sterling Municipal Airport,Sterling,United States,40.61529922,-103.2649994
Rawlins Municipal Airport/Harvey Field,Rawlins,United States,41.80559921,-107.1999969
Essex County Airport,Caldwell,United States,40.8751983643,-74.2814025879
Lee C Fine Memorial Airport,Kaiser Lake Ozark,United States,38.0960006714,-92.5494995117
Big Bear City,Big Bear,United States,34.2637778,-116.8560278
Los Angeles Union Station,Los Angeles,United States,34.056111,-118.234167
Thomasville Regional Airport,Thomasville,United States,30.901599884033,-83.881301879883
Henderson Executive Airport,Henderson,United States,35.9728012085,-115.134002686
Henry Tift Myers Airport,Tifton,United States,31.4290008545,-83.4885025024
Savannah Cruise Terminal,Savannah,United States,32.08558,-81.097559
CHARLESTON CRUISE TERMINAL,CHARLESTON,United States,32.781081,-79.92364
NEW YORK CRUISE TERMINAL PIER 92,NEW YORK,United States,40.767681,-73.999107
Phoenix Deer Valley Airport,Phoenix ,United States,33.6883010864,-112.083000183
Republic Airport,Farmingdale,United States,40.7288017273,-73.4133987427
Seattle King Street Station,Seattle,United States,47.5985,-122.3299
South Texas Regional Airport at Hondo,Hondo,United States,29.35950088501,-99.176696777344
Milwaukee Airport Station,Milwaukee,United States,42.940556,-87.924722
Springfield IL Amtrak,Springfield,United States,39.8023,-89.6515
St. Louis Amtrak - old,St. Louis,United States,38.6241,-90.2056
Camarillo Amtrak,Camarillo,United States,34.2164,-119.0335
Seattle Pier 52,Seattle,United States,47.6005,-122.3388
Bremerton Terminal,Bremerton,United States,47.5619,-122.625
McKinley National Park Airport,McKinley Park,United States,63.7326011658,-148.910995483
Lake Hood Airport,Anchorage,United States,61.186946,-149.965442
Prospect Creek Airport,Prospect Creek,United States,66.814102172852,-150.64399719238
Columbia County,Hudson NY,United States,42.2913,-73.7103
Wheeling Ohio County Airport,Wheeling,United States,40.1749992371,-80.6463012695
Fitzgerald Municipal Airport,Fitzgerald,United States,31.6837005615234,-83.2705001831055
Perry-Foley Airport,Perry,United States,30.0692778,-83.5805833
Cairo-Grady County Airport,Cairo,United States,30.8879767,-84.1547353
Aransas County Airport,Rockport,United States,28.0867996216,-97.0446014404
Crisp County Cordele Airport,Cordele,United States,31.98880005,-83.77390289
Ormond Beach Municipal Airport,Ormond Beach,United States,29.3006000518799,-81.1136016845703
Portland Troutdale Airport,Troutdale,United States,45.54940032959,-122.40100097656
Portland Hillsboro Airport,Hillsboro,United States,45.540401,-122.949997
One Police Plaza Heliport,New York,United States,40.7126007080078,-73.9996032714844
Suwannee County Airport,Live Oak,United States,30.300125,-83.0246944
Bend Municipal Airport,Bend,United States,44.09479904,-121.2009964
Christmas Valley Airport,Christmas Valley,United States,43.236499786377,-120.666000366211
Burns Municipal Airport,Burns,United States,43.5918998718,-118.955001831
Prineville Airport,Prineville,United States,44.286998748779,-120.90399932861
Red Bluff Municipal Airport,Red Bluff,United States,40.1506996155,-122.251998901
Marin County Airport - Gnoss Field,Novato,United States,38.143600463867,-122.55599975586
Lake County Airport,Lakeview,United States,42.1610984802,-120.399002075
Tillamook Airport,Tillamook,United States,45.4182014465,-123.814002991
Ontario Municipal Airport,Ontario,United States,44.020500183105,-117.01399993896
Columbia Gorge Regional the Dalles Municipal Airport,The Dalles,United States,45.6184997559,-121.166999817
Montgomery County Airpark,Gaithersburg,United States,39.1683006287,-77.1660003662
Cincinnati Union Terminal,Cincinnati,United States,39.109961,-84.537074
Cleveland Clinic,Cleveland,United States,41.50225,-81.62233
Charlevoix Municipal Airport,Charelvoix,United States,45.3047981262207,-85.2748031616211
Quincy Municipal Airport,Quincy,United States,30.5978708,-84.557425
Moultrie Municipal Airport,Moultrie,United States,31.0849167,-83.80325
Roche Harbor Seaplane Base,Roche Harbor,United States,48.608056,-123.159722
Blakely Island Airport,Blakely Island,United States,48.56025,-122.80243
Rosario Seaplane Base,Rosario,United States,48.645556,-122.868056
Westsound Seaplane Base,Westsound,United States,48.617778,-122.952778
Friday Harbor Seaplane Base,Friday Harbor,United States,48.537222,-123.009722
Furnace Creek,Death Valley National Park,United States,36.273,-116.515
Flagler Executive Airport,Flagler,United States,29.4674,-81.206299
Morrisville Stowe State Airport,Morrisville,United States,44.5345993042,-72.6139984131
Dallas Executive Airport,Dallas,United States,32.6809005737,-96.8682022095
Welke Airport,Beaver Island,United States,45.721111,-85.520278
Westerly State Airport,Washington County,United States,41.3496017456,-71.8033981323
Block Island State Airport,Block Island,United States,41.1680984497,-71.577796936
Atmautluak Airport,Atmautluak,United States,60.866667,-162.273056
Atmautluak Airport,Atmautluak,United States,60.866667,-162.273056
Atmautluak Airport,Atmautluak,United States,60.866667,-162.273056
Nightmute Airport,Nightmute,United States,60.471000671387,-164.70100402832
Toksook Bay Airport,Toksook Bay,United States,60.54140091,-165.0870056
Tununak Airport,Tununak,United States,60.575556,-165.271667
Goodnews Airport,Goodnews Bay,United States,59.1175,-161.5775
Newtok Airport,Newtok,United States,60.939167,-164.641111
Decatur County Industrial Air Park,Bainbridge,United States,30.9715004,-84.63739777
Silver Springs Airport,Silver Springs,United States,39.4029998779297,-119.250999450684
Whiteman Airport,Los Angeles,United States,34.2593002319,-118.413002014
Madera Municipal Airport,Madera,United States,36.9886016846,-120.111999512
Mountain Home Municipal Airport,Mountain Home,United States,43.1316111,-115.7305671
Jackson County Airport,Jefferson,United States,34.1758638,-83.5615972
Apalachicola Regional Airport,Apalachicola,United States,29.72750092,-85.02749634
St. Augustine Airport,St. Augustine,United States,29.95925,-81.3397222
Douglas Municipal Airport,Douglas,United States,31.4766998291016,-82.8604965209961
St Lucie County International Airport,Fort Pierce,United States,27.49510002,-80.36830139
Taunton Municipal King Field,Taunton,United States,41.8744010925293,-71.0166015625
Plymouth Municipal Airport,Plymouth,United States,41.909,-70.728798
Quonset State Airport,North Kingstown,United States,41.597099304199,-71.412101745605
Mansfield Municipal,Mansfield,United States,42.0001331,-71.1967714
Norwood Memorial Airport,Norwood,United States,42.1904983521,-71.1728973389
Westfield-Barnes Regional Airport,Westfield,United States,42.157799,-72.715599
Windham Airport,Willimantic,United States,41.7439994812012,-72.1802978515625
Orange County Airport,Montgomery,United States,41.50999832,-74.26460266
Capital City Airport,Harrisburg,United States,40.2170982361,-76.8515014648
Marshfield Municipal George Harlow Field,Marshfield,United States,42.0983009338379,-70.6722030639648
Danbury Municipal Airport,Danbury,United States,41.3714981079,-73.4822006226
Boire Field,Nashua,United States,42.7817001343,-71.5148010254
Lawrence Municipal Airport,Lawrence,United States,42.7172012329,-71.1233978271
Waterbury Oxford Airport,Oxford,United States,41.47859954834,-73.135200500488
Fitchburg Municipal Airport,Fitchburg,United States,42.5541000366211,-71.7590026855469
Earl L. Small Jr. Field/Stockmar Airport,Villa Rica,United States,33.7565002441,-84.8846969604
Cartersville Airport,Cartersville,United States,34.1231002807617,-84.8487014770508
Centre-Piedmont-Cherokee County Regional Airport,Centre,United States,34.089977,-85.610069
Richard B Russell Airport,Rome,United States,34.3506011963,-85.1579971313
Northeast Alabama Regional Airport,Gadsden,United States,33.972599,-86.088996
Knoxville Downtown Island Airport,Knoxville,United States,35.9639015197754,-83.8739013671875
Barrow County Airport,Winder,United States,33.98289871,-83.66739655
